$GPRMC,174612.00,A,4506.29461,N,07537.42406,W,0.045,,041020,,,A*6E
$GPGGA,174612.00,4506.29461,N,07537.42406,W,1,11,0.76,91.4,M,-34.1,M,,*52
$GPGGA,174611.00,4506.29456,N,07537.42396,W,1,11,0.76,91.1,M,-34.1,M,,*5E
$GPGSA,A,3,15,18,13,20,23,24,29,05,10,27,30,,1.27,0.76,1.02*07
$PFLAA,2,170,444,82,1,C03745!FLR_C03745,244,,29,,1*53
$PFLAU,1,1,2,1,2,69,2,82,475*52
$PGRMZ,69,f,3*24
$GPRMC,174612.00,A,4506.29461,N,07537.42406,W,0.045,,041020,,,A*6E
$GPGGA,174612.00,4506.29461,N,07537.42406,W,1,11,0.76,91.4,M,-34.1,M,,*52
$GPGSA,A,3,15,18,13,20,23,24,29,05,10,27,30,,1.27,0.76,1.02*07
$PFLAA,2,148,387,70,1,C03745!FLR_C03745,249,,29,,1*50
$PFLAA,0,-871,-1450,541,1,C059D3!FLR_C059D3,221,,31,2.2,1*73
$PFLAU,2,1,2,1,2,69,2,70,415*5A
$PGRMZ,71,f,3*2D
$GPRMC,174613.00,A,4506.29461,N,07537.42416,W,0.058,,041020,,,A*62
$GPGGA,174613.00,4506.29461,N,07537.42416,W,1,11,0.86,91.7,M,-34.1,M,,*5E
$GPGSA,A,3,15,18,13,20,23,24,29,05,10,27,30,,1.42,0.86,1.13*0B
$PFLAA,0,-912,-1460,549,1,C059D3!FLR_C059D3,239,,30,4.4,1*74
$PFLAU,2,1,2,1,0,-122,2,549,1722*42
$PGRMZ,71,f,3*2D
$GPRMC,174614.00,A,4506.29464,N,07537.42428,W,0.204,,041020,,,A*66
$GPGGA,174614.00,4506.29464,N,07537.42428,W,1,11,0.86,91.7,M,-34.1,M,,*51
$GPGSA,A,3,15,18,13,20,23,24,29,05,10,27,30,,1.42,0.86,1.13*0B
$PFLAA,3,132,363,57,1,C03745!FLR_C03745,248,,29,,1*52
$PFLAA,0,-928,-1486,554,1,C059D3!FLR_C059D3,233,,30,4.8,1*7F
$PFLAU,2,1,2,1,3,70,2,57,387*5A
$PGRMZ,71,f,3*2D
$GPRMC,174615.00,A,4506.29470,N,07537.42439,W,0.337,,041020,,,A*63
$GPGGA,174615.00,4506.29470,N,07537.42439,W,1,11,0.86,91.8,M,-34.1,M,,*5A
$GPGSA,A,3,15,18,13,20,23,24,29,05,10,27,30,,1.42,0.86,1.13*0B
$PFLAA,3,121,335,53,1,C03745!FLR_C03745,245,,29,,1*5A
$PFLAA,0,-943,-1509,558,1,C059D3!FLR_C059D3,219,,29,4.4,1*74
$PFLAU,2,1,2,1,3,70,2,53,356*52
$PGRMZ,70,f,3*2C
$GPRMC,174616.00,A,4506.29487,N,07537.42405,W,2.284,18.13,041020,,,A*49
$GPGGA,174616.00,4506.29487,N,07537.42405,W,1,10,0.76,93.9,M,-34.1,M,,*53
$GPGSA,A,3,15,13,20,23,24,29,05,10,27,30,,,1.39,0.76,1.16*04
$PFLAA,3,106,308,45,1,C03745!FLR_C03745,248,,29,,1*5B
$PFLAA,0,-957,-1532,555,1,C059D3!FLR_C059D3,218,,29,2.1,1*76
$PFLAU,2,1,2,1,3,71,2,45,326*53
$PGRMZ,71,f,3*2D
$GPRMC,174617.00,A,4506.29492,N,07537.42373,W,0.694,,041020,,,A*68
$GPGGA,174617.00,4506.29492,N,07537.42373,W,1,11,0.86,96.6,M,-34.1,M,,*54
$GPGSA,A,3,15,18,13,20,23,24,29,05,10,27,30,,1.57,0.86,1.31*0F
$PFLAA,3,96,280,37,1,C03745!FLR_C03745,250,,29,,1*6E
$PFLAA,0,-998,-1538,556,1,C059D3!FLR_C059D3,207,,28,3.1,1*72
$PFLAU,2,1,2,1,3,71,2,37,296*5C
$PGRMZ,74,f,3*28
$GPRMC,174618.00,A,4506.29471,N,07537.42368,W,0.615,,041020,,,A*69
$GPGGA,174618.00,4506.29471,N,07537.42368,W,1,11,0.86,97.9,M,-34.1,M,,*52
$GPGSA,A,3,15,18,13,20,23,24,29,05,10,27,30,,1.42,0.86,1.13*0B
$PFLAA,3,87,253,29,1,C03745!FLR_C03745,247,,29,,1*69
$PFLAA,0,-1013,-1560,557,1,C059D3!FLR_C059D3,204,,28,2.6,1*40
$PFLAU,2,1,2,1,3,71,2,29,267*5D
$PGRMZ,73,f,3*2F
$GPRMC,174619.00,A,4506.29463,N,07537.42372,W,0.407,,041020,,,A*61
$GPGGA,174619.00,4506.29463,N,07537.42372,W,1,11,0.86,98.1,M,-34.1,M,,*5C
$GPGSA,A,3,15,18,13,20,23,24,29,05,10,27,30,,1.42,0.86,1.13*0B
$PFLAA,3,74,227,23,1,C03745!FLR_C03745,246,,28,,1*6C
$PFLAA,0,-1069,-1585,558,1,C059D3!FLR_C059D3,210,,27,1.9,1*4F
$PFLAU,2,1,2,1,3,72,2,23,239*5F
$PGRMZ,71,f,3*2D
$GPRMC,174620.00,A,4506.29503,N,07537.42380,W,3.281,358.59,041020,,,A*76
$GPGGA,174620.00,4506.29503,N,07537.42380,W,1,11,0.86,97.9,M,-34.1,M,,*5B
$GPGSA,A,3,15,18,13,20,23,24,29,05,10,27,30,,1.42,0.86,1.14*0C
$PFLAA,3,61,201,19,1,C03745!FLR_C03745,247,,28,,1*64
$PFLAA,0,-1069,-1585,558,1,C059D3!FLR_C059D3,210,,27,1.9,1*4F
$PFLAU,2,1,2,1,3,73,2,19,210*5C
$PGRMZ,73,f,3*2F
$GPRMC,174621.00,A,4506.29554,N,07537.42378,W,1.483,,041020,,,A*68
$GPGGA,174621.00,4506.29554,N,07537.42378,W,1,11,0.90,97.9,M,-34.1,M,,*58
$GPGSA,A,3,15,18,13,20,23,24,29,05,10,27,30,,1.66,0.90,1.40*0C
$PFLAA,3,50,175,20,1,C03745!FLR_C03745,247,,28,,1*6C
$PFLAA,0,-1083,-1605,566,1,C059D3!FLR_C059D3,204,,27,4.1,1*45
$PFLAU,2,1,2,1,3,74,2,20,182*59
$PGRMZ,75,f,3*29
$GPRMC,174622.00,A,4506.29568,N,07537.42377,W,0.468,,041020,,,A*6F
$GPGGA,174622.00,4506.29568,N,07537.42377,W,1,11,0.76,97.6,M,-34.1,M,,*5C
$GPGSA,A,3,15,18,13,20,23,24,29,05,10,27,30,,1.27,0.76,1.02*07
$PFLAA,3,37,148,16,1,C03745!FLR_C03745,248,,28,,1*69
$PFLAA,0,-1139,-1627,570,1,C059D3!FLR_C059D3,202,,27,3.0,1*42
$PFLAU,2,1,2,1,3,76,2,16,153*52
$PGRMZ,74,f,3*28
$GPRMC,174623.00,A,4506.29567,N,07537.42386,W,0.091,,041020,,,A*6D
$GPGGA,174623.00,4506.29567,N,07537.42386,W,1,11,0.76,97.1,M,-34.1,M,,*5B
$GPGSA,A,3,15,18,13,20,23,24,29,05,10,27,30,,1.27,0.76,1.02*07
$PFLAA,3,26,123,12,1,C03745!FLR_C03745,245,,27,,1*62
$PFLAA,0,-1139,-1627,571,1,C059D3!FLR_C059D3,202,,27,3.0,1*43
$PFLAU,2,1,2,1,3,78,2,12,126*5A
$PGRMZ,71,f,3*2D
$GPRMC,174624.00,A,4506.29560,N,07537.42395,W,0.163,,041020,,,A*63
$GPGGA,174624.00,4506.29560,N,07537.42395,W,1,11,0.76,96.5,M,-34.1,M,,*5C
$GPGSA,A,3,15,18,13,20,23,24,29,05,10,27,30,,1.27,0.76,1.02*07
$PFLAA,3,1,73,6,1,C03745!FLR_C03745,237,,27,,1*53
$PFLAA,0,-1153,-1647,572,1,C059D3!FLR_C059D3,204,,27,2.4,1*49
$PFLAU,2,1,2,1,3,89,2,6,73*50
$PGRMZ,71,f,3*2D
$GPRMC,174625.00,A,4506.29552,N,07537.42399,W,0.068,,041020,,,A*65
$GPGGA,174625.00,4506.29552,N,07537.42399,W,1,11,0.76,96.1,M,-34.1,M,,*54
$GPGSA,A,3,15,18,13,20,23,24,29,05,10,27,30,,1.27,0.76,1.02*07
$PFLAA,3,-10,48,0,1,C03745!FLR_C03745,245,,28,,1*4A
$PFLAA,0,-1196,-1646,575,1,C059D3!FLR_C059D3,214,,27,2.1,1*42
$PFLAU,2,1,2,1,3,102,2,0,49*6D
$PGRMZ,70,f,3*2C
$GPRMC,174626.00,A,4506.29546,N,07537.42401,W,0.126,,041020,,,A*6E
$GPGGA,174626.00,4506.29546,N,07537.42401,W,1,11,0.76,96.1,M,-34.1,M,,*54
$GPGSA,A,3,15,18,13,20,23,24,29,05,10,27,30,,1.27,0.76,1.02*07
$PFLAA,3,-10,48,0,1,C03745!FLR_C03745,245,,28,,1*4A
$PFLAA,0,-1211,-1667,577,1,C059D3!FLR_C059D3,226,,26,1.9,1*44
$PFLAU,2,1,2,1,3,102,2,0,49*6D
$PGRMZ,72,f,3*2E
$GPRMC,174627.00,A,4506.29575,N,07537.42416,W,2.476,353.22,041020,,,A*70
$GPGGA,174627.00,4506.29575,N,07537.42416,W,1,11,0.76,94.7,M,-34.1,M,,*57
$GPGSA,A,3,15,18,13,20,23,24,29,05,10,27,30,,1.27,0.76,1.02*07
$PFLAA,3,-21,22,3,1,C03745!FLR_C03745,250,,27,,1*4C
$PFLAA,0,-1243,-1711,578,1,C059D3!FLR_C059D3,232,,26,0.2,1*43
$PFLAU,2,1,2,1,3,134,2,3,30*65
$PGRMZ,73,f,3*2F
$GPRMC,174628.00,A,4506.29606,N,07537.42446,W,0.785,,041020,,,A*6B
$GPGGA,174628.00,4506.29606,N,07537.42446,W,1,11,0.76,92.5,M,-34.1,M,,*5E
$GPGSA,A,3,15,18,13,20,23,24,29,05,10,27,30,,1.27,0.76,1.02*07
$PFLAA,3,-45,-27,-1,1,C03745!FLR_C03745,241,,27,,1*49
$PFLAA,0,-1259,-1732,580,1,C059D3!FLR_C059D3,223,,27,-0.4,1*64
$PFLAU,2,1,2,1,3,-149,2,-1,53*68
$PGRMZ,71,f,3*2D
$GPRMC,174629.00,A,4506.29614,N,07537.42461,W,0.657,,041020,,,A*62
$GPGGA,174629.00,4506.29614,N,07537.42461,W,1,11,0.76,91.1,M,-34.1,M,,*5E
$GPGSA,A,3,15,18,13,20,23,24,29,05,10,27,30,,1.27,0.76,1.02*07
$PFLAA,3,-45,-27,0,1,C03745!FLR_C03745,241,,27,,1*65
$PFLAA,0,-1259,-1732,582,1,C059D3!FLR_C059D3,223,,27,-0.4,1*66
$PFLAU,2,1,2,1,3,-149,2,0,53*44
$PGRMZ,73,f,3*2F
$GPRMC,174630.00,A,4506.29612,N,07537.42467,W,0.177,,041020,,,A*6F
$GPGGA,174630.00,4506.29612,N,07537.42467,W,1,11,0.76,90.4,M,-34.1,M,,*52
$GPGSA,A,3,15,18,13,20,23,24,29,05,10,27,30,,1.27,0.76,1.02*07
$PFLAA,3,-59,-51,-3,1,C03745!FLR_C03745,243,,27,,1*45
$PFLAA,0,-1259,-1732,582,1,C059D3!FLR_C059D3,223,,27,-0.4,1*66
$PFLAU,2,1,2,1,3,-139,2,-3,78*64
$PGRMZ,72,f,3*2E
$GPRMC,174631.00,A,4506.29601,N,07537.42475,W,0.127,,041020,,,A*6A
$GPGGA,174631.00,4506.29601,N,07537.42475,W,1,11,0.76,90.1,M,-34.1,M,,*57
$GPGSA,A,3,15,18,13,20,23,24,29,05,10,27,30,,1.27,0.76,1.02*07
$PFLAA,3,-81,-100,-2,1,C03745!FLR_C03745,244,,27,,1*73
$PFLAA,0,-1259,-1732,583,1,C059D3!FLR_C059D3,223,,27,-0.4,1*67
$PFLAU,2,1,2,1,3,-129,2,-2,128*50
$PGRMZ,72,f,3*2E
$GPRMC,174632.00,A,4506.29588,N,07537.42480,W,0.188,,041020,,,A*64
$GPGGA,174632.00,4506.29588,N,07537.42480,W,1,11,0.76,90.1,M,-34.1,M,,*5C
$GPGSA,A,3,15,18,13,20,23,24,29,05,10,27,30,,1.27,0.76,1.02*07
$PFLAA,3,-81,-100,-2,1,C03745!FLR_C03745,244,,27,,1*73
$PFLAA,0,-1258,-1732,583,1,C059D3!FLR_C059D3,223,,27,-0.4,1*66
$PFLAU,2,1,2,1,3,-129,2,-2,128*50
$PGRMZ,74,f,3*28
$GPRMC,174633.00,A,4506.29571,N,07537.42483,W,0.221,,041020,,,A*60
$GPGGA,174633.00,4506.29571,N,07537.42483,W,1,11,0.76,90.0,M,-34.1,M,,*59
$GPGSA,A,3,15,18,13,20,23,24,29,05,10,27,30,,1.27,0.76,1.02*07
$PFLAA,3,-92,-122,-1,1,C03745!FLR_C03745,241,,26,,1*76
$PFLAA,0,-1258,-1732,583,1,C059D3!FLR_C059D3,223,,27,-0.4,1*66
$PFLAU,2,1,2,1,3,-127,2,-1,153*51
$PGRMZ,73,f,3*2F
$GPRMC,174634.00,A,4506.29558,N,07537.42484,W,0.182,,041020,,,A*61
$GPGGA,174634.00,4506.29558,N,07537.42484,W,1,11,0.76,90.1,M,-34.1,M,,*53
$GPGSA,A,3,15,18,13,20,23,24,29,05,10,27,30,,1.27,0.76,1.02*07
$PFLAA,3,-102,-145,-6,1,C03745!FLR_C03745,246,,25,,1*4C
$PFLAU,1,1,2,1,3,-125,2,-6,178*5E
$PGRMZ,74,f,3*28
$GPRMC,174635.00,A,4506.29554,N,07537.42484,W,0.254,,041020,,,A*64
$GPGGA,174635.00,4506.29554,N,07537.42484,W,1,11,0.76,90.1,M,-34.1,M,,*5E
$GPGSA,A,3,15,18,13,20,23,24,29,05,10,27,30,,1.27,0.76,1.02*07
$PFLAU,1,1,2,1,0,0,2,0,2147483647*69
$PGRMZ,74,f,3*28
$GPRMC,174636.00,A,4506.29546,N,07537.42484,W,0.144,,041020,,,A*66
$GPGGA,174636.00,4506.29546,N,07537.42484,W,1,11,0.86,89.9,M,-34.1,M,,*51
$GPGSA,A,3,15,18,13,20,23,24,29,05,10,27,30,,1.42,0.86,1.14*0C
$PFLAA,3,-131,-210,-3,1,C03745!FLR_C03745,240,,23,,1*4A
$PFLAU,1,1,2,1,3,-122,2,-3,248*5C
$PGRMZ,72,f,3*2E
$GPRMC,174637.00,A,4506.29540,N,07537.42489,W,0.365,,041020,,,A*6D
$GPGGA,174637.00,4506.29540,N,07537.42489,W,1,11,0.76,89.4,M,-34.1,M,,*59
$GPGSA,A,3,15,18,13,20,23,24,29,05,10,27,30,,1.27,0.76,1.02*07
$PFLAA,3,-131,-210,-3,1,C03745!FLR_C03745,240,,23,,1*4A
$PFLAU,1,1,2,1,3,-122,2,-3,248*5C
$PGRMZ,75,f,3*29
$GPRMC,174638.00,A,4506.29528,N,07537.42487,W,0.131,,041020,,,A*61
$GPGGA,174638.00,4506.29528,N,07537.42487,W,1,11,0.86,89.3,M,-34.1,M,,*5E
$GPGSA,A,3,15,18,13,20,23,24,29,05,10,27,30,,1.42,0.86,1.14*0C
$PFLAA,3,-151,-251,-2,1,C03745!FLR_C03745,248,,22,,1*41
$PFLAU,1,1,2,1,3,-121,2,-2,293*58
$PGRMZ,71,f,3*2D
$GPRMC,174639.00,A,4506.29519,N,07537.42481,W,0.298,,041020,,,A*64
$GPGGA,174639.00,4506.29519,N,07537.42481,W,1,11,0.86,89.3,M,-34.1,M,,*5B
$GPGSA,A,3,15,18,13,20,23,24,29,05,10,27,30,,1.42,0.86,1.14*0C
$PFLAA,3,-151,-251,-2,1,C03745!FLR_C03745,248,,22,,1*41
$PFLAU,1,1,2,1,3,-121,2,-2,293*58
$PGRMZ,71,f,3*2D
$GPRMC,174640.00,A,4506.29513,N,07537.42474,W,0.188,,041020,,,A*68
$GPGGA,174640.00,4506.29513,N,07537.42474,W,1,11,0.86,89.2,M,-34.1,M,,*54
$GPGSA,A,3,15,18,13,20,23,24,29,05,10,27,30,,1.42,0.86,1.14*0C
$PFLAA,3,-172,-287,-2,1,C03745!FLR_C03745,246,,21,,1*46
$PFLAU,1,1,2,1,3,-121,2,-2,335*55
$PGRMZ,71,f,3*2D
$GPRMC,174641.00,A,4506.29505,N,07537.42468,W,0.060,,041020,,,A*64
$GPGGA,174641.00,4506.29505,N,07537.42468,W,1,11,0.86,89.0,M,-34.1,M,,*5D
$GPGSA,A,3,15,18,13,20,23,24,29,05,10,27,30,,1.42,0.86,1.14*0C
$PFLAA,3,-172,-287,-1,1,C03745!FLR_C03745,246,,21,,1*45
$PFLAU,1,1,2,1,3,-121,2,-1,335*56
$PGRMZ,71,f,3*2D
$GPRMC,174642.00,A,4506.29500,N,07537.42464,W,0.045,,041020,,,A*69
$GPGGA,174642.00,4506.29500,N,07537.42464,W,1,11,0.76,89.0,M,-34.1,M,,*58
$GPGSA,A,3,15,18,13,20,23,24,29,05,10,27,30,,1.27,0.76,1.02*07
$PFLAA,3,-178,-309,-3,1,C03745!FLR_C03745,244,,21,,1*48
$PFLAU,1,1,2,1,3,-120,2,-3,356*50
$PGRMZ,72,f,3*2E
$GPRMC,174643.00,A,4506.29495,N,07537.42465,W,0.091,,041020,,,A*6D
$GPGGA,174643.00,4506.29495,N,07537.42465,W,1,11,0.76,89.2,M,-34.1,M,,*57
$GPGSA,A,3,15,18,13,20,23,24,29,05,10,27,30,,1.27,0.76,1.02*07
$PFLAA,3,-197,-341,-3,1,C03745!FLR_C03745,245,,19,,1*4F
$PFLAU,1,1,2,1,3,-120,2,-3,394*5E
$PGRMZ,71,f,3*2D
$GPRMC,174644.00,A,4506.29491,N,07537.42468,W,0.030,,041020,,,A*68
$GPGGA,174644.00,4506.29491,N,07537.42468,W,1,11,0.76,89.3,M,-34.1,M,,*58
$GPGSA,A,3,15,18,13,20,23,24,29,05,10,27,30,,1.27,0.76,1.02*07
$PFLAA,2,-206,-357,-3,1,C03745!FLR_C03745,244,,18,,1*42
$PFLAU,1,1,2,1,2,-120,2,-3,412*56
$PGRMZ,73,f,3*2F
$GPRMC,174645.00,A,4506.29491,N,07537.42472,W,0.110,,041020,,,A*61
$GPGGA,174645.00,4506.29491,N,07537.42472,W,1,11,0.76,89.3,M,-34.1,M,,*52
$GPGSA,A,3,15,18,13,20,23,24,29,05,10,27,30,,1.27,0.76,1.02*07
$PFLAA,2,-206,-357,-3,1,C03745!FLR_C03745,244,,18,,1*42
$PFLAU,1,1,2,1,2,-120,2,-3,412*56
$PGRMZ,71,f,3*2D
$GPRMC,174646.00,A,4506.29493,N,07537.42476,W,0.096,,041020,,,A*6B
$GPGGA,174646.00,4506.29493,N,07537.42476,W,1,11,0.76,89.4,M,-34.1,M,,*50
$GPGSA,A,3,15,18,13,20,23,24,29,05,10,27,30,,1.27,0.76,1.02*07
$PFLAU,1,1,2,1,0,0,2,0,2147483647*69
$PGRMZ,70,f,3*2C
$GPRMC,174647.00,A,4506.29495,N,07537.42484,W,0.229,,041020,,,A*67
$GPGGA,174647.00,4506.29495,N,07537.42484,W,1,11,0.86,89.5,M,-34.1,M,,*54
$GPGSA,A,3,15,18,13,20,23,24,29,05,10,27,30,,1.42,0.86,1.14*0C
$PFLAA,2,-216,-391,-4,1,C03745!FLR_C03745,244,,17,,1*41
$PFLAU,1,1,2,1,2,-119,2,-4,447*5B
$PGRMZ,70,f,3*2C
$GPRMC,174648.00,A,4506.29495,N,07537.42489,W,0.136,,041020,,,A*68
$GPGGA,174648.00,4506.29495,N,07537.42489,W,1,11,0.86,89.7,M,-34.1,M,,*54
$GPGSA,A,3,15,18,13,20,23,24,29,05,10,27,30,,1.42,0.86,1.14*0C
$PFLAA,2,-224,-404,-4,1,C03745!FLR_C03745,251,,16,,1*4E
$PFLAU,1,1,2,1,2,-119,2,-4,462*5C
$PGRMZ,70,f,3*2C
$GPRMC,174649.00,A,4506.29494,N,07537.42492,W,0.066,,041020,,,A*66
$GPGGA,174649.00,4506.29494,N,07537.42492,W,1,11,0.76,89.9,M,-34.1,M,,*5F
$GPGSA,A,3,15,18,13,20,23,24,29,05,10,27,30,,1.27,0.76,1.02*07
$PFLAA,2,-231,-418,-4,1,C03745!FLR_C03745,251,,16,,1*47
$PFLAU,1,1,2,1,2,-119,2,-4,478*57
$PGRMZ,69,f,3*24
$GPRMC,174650.00,A,4506.29494,N,07537.42496,W,0.041,,041020,,,A*6F
$GPGGA,174650.00,4506.29494,N,07537.42496,W,1,11,0.76,90.0,M,-34.1,M,,*52
$GPGSA,A,3,15,18,13,20,23,24,29,05,10,27,30,,1.27,0.76,1.02*07
$PFLAA,2,-231,-418,-4,1,C03745!FLR_C03745,251,,16,,1*47
$PFLAU,1,1,2,1,2,-119,2,-4,478*57
$PGRMZ,68,f,3*25
$GPRMC,174651.00,A,4506.29495,N,07537.42505,W,0.162,,041020,,,A*64
$GPGGA,174651.00,4506.29495,N,07537.42505,W,1,11,0.76,89.9,M,-34.1,M,,*58
$GPGSA,A,3,15,18,13,20,23,24,29,05,10,27,30,,1.27,0.76,1.02*07
$PFLAA,2,-231,-418,-4,1,C03745!FLR_C03745,251,,16,,1*47
$PFLAU,1,1,2,1,2,-119,2,-4,478*57
$PGRMZ,68,f,3*25
$GPRMC,174652.00,A,4506.29496,N,07537.42512,W,0.040,,041020,,,A*63
$GPGGA,174652.00,4506.29496,N,07537.42512,W,1,11,0.76,89.9,M,-34.1,M,,*5E
$GPGSA,A,3,15,18,13,20,23,24,29,05,10,27,30,,1.27,0.76,1.02*07
$PFLAA,2,-231,-418,-4,1,C03745!FLR_C03745,251,,16,,1*47
$PFLAA,3,-140,-45,4,1,C02487!FLR_C02487,0,,0,0.1,1*4C
$PFLAU,2,1,2,1,3,-162,2,4,148*72
$PGRMZ,69,f,3*24
$GPRMC,174653.00,A,4506.29497,N,07537.42518,W,0.200,,041020,,,A*6F
$GPGGA,174653.00,4506.29497,N,07537.42518,W,1,10,0.81,89.8,M,-34.1,M,,*5C
$GPGSA,A,3,15,18,13,20,23,24,29,05,27,30,,,1.36,0.81,1.09*05
$PFLAA,2,-255,-460,-4,1,C03745!FLR_C03745,235,,11,,1*4F
$PFLAA,3,-140,-45,4,1,C02487!FLR_C02487,0,,0,0.1,1*4C
$PFLAU,2,1,2,1,3,-162,2,4,148*72
$PGRMZ,69,f,3*24
$GPRMC,174654.00,A,4506.29501,N,07537.42522,W,0.228,,041020,,,A*65
$GPGGA,174654.00,4506.29501,N,07537.42522,W,1,10,0.81,89.6,M,-34.1,M,,*52
$GPGSA,A,3,15,18,13,20,23,24,29,05,27,30,,,1.36,0.81,1.09*05
$PFLAA,2,-254,-459,-4,1,C03745!FLR_C03745,235,,11,,1*44
$PFLAA,3,-140,-45,4,1,C02487!FLR_C02487,0,,0,0.1,1*4C
$PFLAU,2,1,2,1,3,-162,2,4,148*72
$PGRMZ,69,f,3*24
$GPRMC,174655.00,A,4506.29502,N,07537.42519,W,0.201,,041020,,,A*64
$GPGGA,174655.00,4506.29502,N,07537.42519,W,1,11,0.81,89.4,M,-34.1,M,,*5B
$GPGSA,A,3,15,18,13,20,23,24,29,05,10,27,30,,1.36,0.81,1.09*04
$PFLAA,2,-262,-472,-4,1,C03745!FLR_C03745,230,,8,,1*75
$PFLAA,3,-140,-45,4,1,C02487!FLR_C02487,0,,0,-0.1,1*61
$PFLAU,2,1,2,1,3,-162,2,4,148*72
$PGRMZ,65,f,3*28
$GPRMC,174656.00,A,4506.29499,N,07537.42516,W,0.079,,041020,,,A*66
$GPGGA,174656.00,4506.29499,N,07537.42516,W,1,11,0.81,89.5,M,-34.1,M,,*55
$GPGSA,A,3,15,18,13,20,23,24,29,05,10,27,30,,1.36,0.81,1.09*04
$PFLAA,2,-267,-482,-3,1,C03745!FLR_C03745,246,,6,,1*77
$PFLAA,3,-140,-45,4,1,C02487!FLR_C02487,0,,0,-0.1,1*61
$PFLAU,2,1,2,1,3,-162,2,4,148*72
$PGRMZ,66,f,3*2B
$GPRMC,174657.00,A,4506.29493,N,07537.42514,W,0.158,,041020,,,A*6D
$GPGGA,174657.00,4506.29493,N,07537.42514,W,1,11,0.76,89.6,M,-34.1,M,,*57
$GPGSA,A,3,15,18,13,20,23,24,29,05,10,27,30,,1.27,0.76,1.02*07
$PFLAA,2,-267,-482,-3,1,C03745!FLR_C03745,246,,6,,1*77
$PFLAA,3,-141,-45,5,1,C02487!FLR_C02487,0,,0,0.1,1*4C
$PFLAU,2,1,2,1,3,-162,2,5,148*73
$PGRMZ,67,f,3*2A
$GPRMC,174658.00,A,4506.29487,N,07537.42511,W,0.050,,041020,,,A*6B
$GPGGA,174658.00,4506.29487,N,07537.42511,W,1,11,0.76,89.6,M,-34.1,M,,*58
$GPGSA,A,3,15,18,13,20,23,24,29,05,10,27,30,,1.27,0.76,1.02*07
$PFLAA,2,-267,-483,-3,1,C03745!FLR_C03745,246,,6,,1*76
$PFLAA,3,-142,-46,5,1,C02487!FLR_C02487,0,,0,-0.1,1*61
$PFLAU,2,1,2,1,3,-162,2,5,149*72
$PGRMZ,68,f,3*25
$GPRMC,174659.00,A,4506.29484,N,07537.42508,W,0.090,,041020,,,A*6D
$GPGGA,174659.00,4506.29484,N,07537.42508,W,1,11,0.76,89.5,M,-34.1,M,,*51
$GPGSA,A,3,15,18,13,20,23,24,29,05,10,27,30,,1.27,0.76,1.02*07
$PFLAA,2,-267,-483,-3,1,C03745!FLR_C03745,246,,6,,1*76
$PFLAA,3,-141,-45,5,1,C02487!FLR_C02487,0,,0,-0.1,1*61
$PFLAU,2,1,2,1,3,-162,2,5,148*73
$PGRMZ,68,f,3*25
$GPRMC,174700.00,A,4506.29480,N,07537.42501,W,0.107,,041020,,,A*62
$GPGGA,174700.00,4506.29480,N,07537.42501,W,1,10,0.81,89.4,M,-34.1,M,,*59
$GPGSA,A,3,15,18,13,20,23,24,29,05,27,30,,,1.36,0.81,1.09*05
$PFLAA,2,-267,-483,-3,1,C03745!FLR_C03745,246,,6,,1*76
$PFLAA,3,-141,-45,5,1,C02487!FLR_C02487,0,,0,-0.1,1*61
$PFLAU,2,1,2,1,3,-162,2,5,148*73
$PGRMZ,69,f,3*24
$GPRMC,174701.00,A,4506.29478,N,07537.42497,W,0.183,,041020,,,A*66
$GPGGA,174701.00,4506.29478,N,07537.42497,W,1,10,0.81,89.4,M,-34.1,M,,*51
$GPGSA,A,3,15,18,13,20,23,24,29,05,27,30,,,1.36,0.81,1.09*05
$PFLAA,2,-267,-483,-3,1,C03745!FLR_C03745,246,,6,,1*76
$PFLAU,2,1,2,1,2,-119,2,-3,552*5A
$PGRMZ,68,f,3*25
$GPRMC,174702.00,A,4506.29477,N,07537.42495,W,0.180,,041020,,,A*6B
$GPGGA,174702.00,4506.29477,N,07537.42495,W,1,10,0.81,89.3,M,-34.1,M,,*58
$GPGSA,A,3,15,18,13,20,23,24,29,05,27,30,,,1.36,0.81,1.09*05
$PFLAA,3,-141,-46,5,1,C02487!FLR_C02487,0,,0,-0.1,1*62
$PFLAU,1,1,2,1,3,-162,2,5,149*71
$PGRMZ,68,f,3*25
$GPRMC,174703.00,A,4506.29475,N,07537.42489,W,0.173,,041020,,,A*69
$GPGGA,174703.00,4506.29475,N,07537.42489,W,1,10,0.81,89.7,M,-34.1,M,,*52
$GPGSA,A,3,15,18,13,20,23,24,29,05,27,30,,,1.36,0.81,1.09*05
$PFLAA,3,-141,-46,5,1,C02487!FLR_C02487,0,,0,-0.1,1*62
$PFLAU,1,1,2,1,3,-162,2,5,149*71
$PGRMZ,67,f,3*2A
$GPRMC,174704.00,A,4506.29473,N,07537.42484,W,0.240,,041020,,,A*66
$GPGGA,174704.00,4506.29473,N,07537.42484,W,1,10,0.81,90.1,M,-34.1,M,,*50
$GPGSA,A,3,15,18,13,20,23,24,29,05,27,30,,,1.47,0.81,1.23*0B
$PFLAA,3,-141,-46,5,1,C02487!FLR_C02487,0,,0,-0.1,1*62
$PFLAU,1,1,2,1,3,-162,2,5,149*71
$PGRMZ,67,f,3*2A
$GPRMC,174705.00,A,4506.29476,N,07537.42484,W,0.094,,041020,,,A*69
$GPGGA,174705.00,4506.29476,N,07537.42484,W,1,11,0.81,90.4,M,-34.1,M,,*50
$GPGSA,A,3,15,18,13,20,23,24,29,05,10,27,30,,1.36,0.81,1.09*04
$PFLAA,3,-141,-46,4,1,C02487!FLR_C02487,0,,0,-0.1,1*63
$PFLAU,1,1,2,1,3,-162,2,4,149*70
$PGRMZ,67,f,3*2A
$GPRMC,174706.00,A,4506.29479,N,07537.42488,W,0.275,,041020,,,A*64
$GPGGA,174706.00,4506.29479,N,07537.42488,W,1,11,0.81,90.4,M,-34.1,M,,*50
$GPGSA,A,3,15,18,13,20,23,24,29,05,10,27,30,,1.36,0.81,1.09*04
$PFLAA,3,-141,-46,4,1,C02487!FLR_C02487,0,,0,-0.1,1*63
$PFLAU,1,1,2,1,3,-162,2,4,149*70
$PGRMZ,68,f,3*25
$GPRMC,174707.00,A,4506.29481,N,07537.42499,W,0.371,,041020,,,A*67
$GPGGA,174707.00,4506.29481,N,07537.42499,W,1,11,0.81,90.1,M,-34.1,M,,*53
$GPGSA,A,3,15,18,13,20,23,24,29,05,10,27,30,,1.36,0.81,1.09*04
$PFLAA,3,-141,-46,4,1,C02487!FLR_C02487,0,,0,-0.1,1*63
$PFLAU,1,1,2,1,3,-162,2,4,149*70
$PGRMZ,69,f,3*24
$GPRMC,174708.00,A,4506.29479,N,07537.42511,W,0.180,,041020,,,A*62
$GPGGA,174708.00,4506.29479,N,07537.42511,W,1,10,0.81,89.8,M,-34.1,M,,*5A
$GPGSA,A,3,15,18,13,20,23,24,29,05,27,30,,,1.36,0.81,1.09*05
$PFLAA,3,-141,-46,5,1,C02487!FLR_C02487,0,,0,0.1,1*4F
$PFLAA,3,-141,-46,4,1,C02487!FLR_C02487,0,,0,-0.1,1*63
$PFLAA,2,-264,-497,-3,1,C03745!FLR_C03745,0,,0,,1*76
$PFLAU,3,1,2,1,3,-162,2,5,149*73
$PGRMZ,68,f,3*25
$GPRMC,174709.00,A,4506.29474,N,07537.42522,W,0.156,,041020,,,A*65
$GPGGA,174709.00,4506.29474,N,07537.42522,W,1,10,0.81,89.7,M,-34.1,M,,*59
$GPGSA,A,3,15,18,13,20,23,24,29,05,27,30,,,1.36,0.81,1.09*05
$PFLAA,3,-141,-46,5,1,C02487!FLR_C02487,0,,0,0.1,1*4F
$PFLAA,3,-141,-46,4,1,C02487!FLR_C02487,0,,0,-0.1,1*63
$PFLAA,2,-264,-497,-3,1,C03745!FLR_C03745,0,,0,,1*76
$PFLAU,3,1,2,1,3,-162,2,5,149*73
$PGRMZ,69,f,3*24
$GPRMC,174710.00,A,4506.29464,N,07537.42540,W,0.351,,041020,,,A*6D
$GPGGA,174710.00,4506.29464,N,07537.42540,W,1,10,0.81,89.7,M,-34.1,M,,*54
$GPGSA,A,3,15,18,13,20,23,24,29,05,27,30,,,1.36,0.81,1.09*05
$PFLAA,3,-141,-46,5,1,C02487!FLR_C02487,0,,0,0.1,1*4F
$PFLAA,3,-141,-46,4,1,C02487!FLR_C02487,0,,0,-0.1,1*63
$PFLAA,2,-264,-497,-3,1,C03745!FLR_C03745,0,,0,,1*76
$PFLAU,3,1,2,1,3,-162,2,5,149*73
$PGRMZ,70,f,3*2C
$GPRMC,174711.00,A,4506.29453,N,07537.42556,W,0.240,,041020,,,A*6E
$GPGGA,174711.00,4506.29453,N,07537.42556,W,1,10,0.81,89.6,M,-34.1,M,,*57
$GPGSA,A,3,15,18,13,20,23,24,29,05,27,30,,,1.36,0.81,1.09*05
$PFLAA,3,-141,-45,5,1,C02487!FLR_C02487,0,,0,-0.1,1*61
$PFLAA,3,-141,-46,4,1,C02487!FLR_C02487,0,,0,-0.1,1*63
$PFLAA,2,-264,-497,-3,1,C03745!FLR_C03745,0,,0,,1*76
$PFLAU,3,1,2,1,3,-162,2,5,148*72
$PGRMZ,70,f,3*2C
$GPRMC,174712.00,A,4506.29441,N,07537.42575,W,0.145,,041020,,,A*69
$GPGGA,174712.00,4506.29441,N,07537.42575,W,1,10,0.81,89.4,M,-34.1,M,,*54
$GPGSA,A,3,15,18,13,20,23,24,29,05,27,30,,,1.47,0.81,1.23*0B
$PFLAA,3,-141,-45,5,1,C02487!FLR_C02487,0,,0,0.1,1*4C
$PFLAA,2,-264,-497,-3,1,C03745!FLR_C03745,0,,0,,1*76
$PFLAU,2,1,2,1,3,-162,2,5,148*73
$PGRMZ,71,f,3*2D
$GPRMC,174713.00,A,4506.29432,N,07537.42595,W,0.137,,041020,,,A*67
$GPGGA,174713.00,4506.29432,N,07537.42595,W,1,09,0.90,89.2,M,-34.1,M,,*51
$GPGSA,A,3,15,13,20,23,24,29,05,27,30,,,,1.66,0.90,1.40*04
$PFLAA,3,-140,-45,5,1,C02487!FLR_C02487,0,,0,-0.1,1*60
$PFLAA,2,-264,-497,-3,1,C03745!FLR_C03745,0,,0,,1*76
$PFLAU,2,1,2,1,3,-162,2,5,148*73
$PGRMZ,70,f,3*2C
$GPRMC,174714.00,A,4506.29419,N,07537.42618,W,0.130,,041020,,,D*6D
$GPGGA,174714.00,4506.29419,N,07537.42618,W,2,09,0.90,89.1,M,-34.1,M,,0000*59
$GPGSA,A,3,15,13,20,23,24,29,05,27,30,,,,1.66,0.90,1.40*04
$PFLAA,3,-140,-45,6,1,C02487!FLR_C02487,0,,0,0.1,1*4E
$PFLAA,2,-263,-496,-3,1,C03745!FLR_C03745,0,,0,,1*70
$PFLAU,2,1,2,1,3,-162,2,6,147*7F
$PGRMZ,71,f,3*2D
$GPRMC,174715.00,A,4506.29409,N,07537.42633,W,0.103,,041020,,,D*64
$GPGGA,174715.00,4506.29409,N,07537.42633,W,2,10,0.90,89.1,M,-34.1,M,,0000*58
$GPGSA,A,3,15,13,20,23,24,29,05,10,27,30,,,1.66,0.90,1.40*05
$PFLAA,3,-140,-45,6,1,C02487!FLR_C02487,0,,0,-0.1,1*63
$PFLAA,2,-263,-496,-3,1,C03745!FLR_C03745,0,,0,,1*70
$PFLAU,2,1,2,1,3,-162,2,6,147*7F
$PGRMZ,71,f,3*2D
$GPRMC,174716.00,A,4506.29403,N,07537.42640,W,0.308,,041020,,,D*60
$GPGGA,174716.00,4506.29403,N,07537.42640,W,2,09,0.90,89.2,M,-34.1,M,,0000*5E
$GPGSA,A,3,15,13,20,23,24,29,05,27,30,,,,1.66,0.90,1.40*04
$PFLAA,3,-140,-45,5,1,C02487!FLR_C02487,0,,0,-0.1,1*60
$PFLAA,2,-263,-495,-3,1,C03745!FLR_C03745,0,,0,,1*73
$PFLAU,2,1,2,1,3,-162,2,5,147*7C
$PGRMZ,72,f,3*2E
$GPRMC,174717.00,A,4506.29403,N,07537.42646,W,0.208,,041020,,,D*66
$GPGGA,174717.00,4506.29403,N,07537.42646,W,2,09,0.81,89.2,M,-34.1,M,,0000*59
$GPGSA,A,3,15,13,20,23,24,29,05,27,30,,,,1.47,0.81,1.23*02
$PFLAA,3,-140,-45,5,1,C02487!FLR_C02487,0,,0,0.1,1*4D
$PFLAA,2,-263,-495,-3,1,C03745!FLR_C03745,0,,0,,1*73
$PFLAU,2,1,2,1,3,-162,2,5,147*7C
$PGRMZ,71,f,3*2D
$GPRMC,174718.00,A,4506.29409,N,07537.42654,W,0.308,,041020,,,D*61
$GPGGA,174718.00,4506.29409,N,07537.42654,W,2,09,0.81,89.0,M,-34.1,M,,0000*5D
$GPGSA,A,3,15,13,20,23,24,29,05,27,30,,,,1.47,0.81,1.23*02
$PFLAA,3,-140,-45,6,1,C02487!FLR_C02487,0,,0,0.1,1*4E
$PFLAA,2,-263,-495,-2,1,C03745!FLR_C03745,0,,0,,1*72
$PFLAU,2,1,2,1,3,-162,2,6,147*7F
$PGRMZ,72,f,3*2E
$GPRMC,174719.00,A,4506.29408,N,07537.42676,W,0.473,,041020,,,D*6A
$GPGGA,174719.00,4506.29408,N,07537.42676,W,2,11,0.81,89.3,M,-34.1,M,,0000*57
$GPGSA,A,3,15,18,13,20,23,24,29,05,10,27,30,,1.47,0.81,1.23*0A
$PFLAA,3,-140,-45,5,1,C02487!FLR_C02487,0,,0,0.1,1*4D
$PFLAU,1,1,2,1,3,-162,2,5,147*7F
$PGRMZ,71,f,3*2D
$GPRMC,174720.00,A,4506.29418,N,07537.42673,W,0.132,,041020,,,D*64
$GPGGA,174720.00,4506.29418,N,07537.42673,W,2,11,0.76,89.2,M,-34.1,M,,0000*50
$GPGSA,A,3,15,18,13,20,23,24,29,05,10,27,30,,1.27,0.76,1.02*07
$PFLAA,3,-141,-43,5,1,C02487!FLR_C02487,0,,0,0.1,1*4A
$PFLAU,1,1,2,1,3,-163,2,5,147*7E
$PGRMZ,73,f,3*2F
$GPRMC,174721.00,A,4506.29413,N,07537.42665,W,0.132,,041020,,,D*69
$GPGGA,174721.00,4506.29413,N,07537.42665,W,2,10,0.81,90.0,M,-34.1,M,,0000*5E
$GPGSA,A,3,15,18,13,20,23,24,29,05,27,30,,,1.36,0.81,1.09*05
$PFLAA,3,-141,-43,4,1,C02487!FLR_C02487,0,,0,-0.1,1*66
$PFLAA,2,-263,-495,-3,1,C03745!FLR_C03745,0,,0,,1*73
$PFLAU,2,1,2,1,3,-163,2,4,147*7C
$PGRMZ,72,f,3*2E
$GPRMC,174722.00,A,4506.29413,N,07537.42659,W,0.284,,041020,,,D*6B
$GPGGA,174722.00,4506.29413,N,07537.42659,W,2,10,0.81,90.0,M,-34.1,M,,0000*52
$GPGSA,A,3,15,18,13,20,23,24,29,05,27,30,,,1.47,0.81,1.23*0B
$PFLAA,3,-138,-45,3,1,C02487!FLR_C02487,0,,0,0.1,1*44
$PFLAA,2,-263,-495,-3,1,C03745!FLR_C03745,0,,0,,1*73
$PFLAU,2,1,2,1,3,-162,2,3,146*7B
$PGRMZ,72,f,3*2E
$GPRMC,174723.00,A,4506.29438,N,07537.42669,W,0.243,,041020,,,D*6B
$GPGGA,174723.00,4506.29438,N,07537.42669,W,2,10,0.81,88.6,M,-34.1,M,,0000*56
$GPGSA,A,3,15,18,13,20,23,24,29,05,27,30,,,1.47,0.81,1.23*0B
$PFLAA,3,-138,-45,4,1,C02487!FLR_C02487,0,,0,0.1,1*43
$PFLAA,2,-263,-495,-2,1,C03745!FLR_C03745,0,,0,,1*72
$PFLAU,2,1,2,1,3,-162,2,4,146*7C
$PGRMZ,71,f,3*2D
$GPRMC,174724.00,A,4506.29447,N,07537.42663,W,0.293,,041020,,,D*63
$GPGGA,174724.00,4506.29447,N,07537.42663,W,2,11,0.76,88.2,M,-34.1,M,,0000*5E
$GPGSA,A,3,15,18,13,20,23,24,29,05,10,27,30,,1.39,0.76,1.16*0D
$PFLAA,3,-139,-45,4,1,C02487!FLR_C02487,0,,0,-0.1,1*6F
$PFLAA,2,-263,-495,-2,1,C03745!FLR_C03745,0,,0,,1*72
$PFLAU,2,1,2,1,3,-162,2,4,146*7C
$PGRMZ,72,f,3*2E
$GPRMC,174725.00,A,4506.29450,N,07537.42657,W,0.112,,041020,,,D*69
$GPGGA,174725.00,4506.29450,N,07537.42657,W,2,11,0.76,87.7,M,-34.1,M,,0000*54
$GPGSA,A,3,15,18,13,20,23,24,29,05,10,27,30,,1.39,0.76,1.16*0D
$PFLAA,3,-139,-45,5,1,C02487!FLR_C02487,0,,0,-0.1,1*6E
$PFLAA,2,-263,-495,-1,1,C03745!FLR_C03745,0,,0,,1*71
$PFLAU,2,1,2,1,3,-162,2,5,146*7D
$PGRMZ,69,f,3*24
$GPRMC,174726.00,A,4506.29457,N,07537.42653,W,0.562,,041020,,,D*6A
$GPGGA,174726.00,4506.29457,N,07537.42653,W,2,11,0.76,87.4,M,-34.1,M,,0000*57
$GPGSA,A,3,15,18,13,20,23,24,29,05,10,27,30,,1.27,0.76,1.02*07
$PFLAA,3,-139,-45,4,1,C02487!FLR_C02487,0,,0,0.1,1*42
$PFLAA,2,-263,-495,-1,1,C03745!FLR_C03745,0,,0,,1*71
$PFLAU,2,1,2,1,3,-162,2,4,146*7C
$PGRMZ,73,f,3*2F
$GPRMC,174727.00,A,4506.29470,N,07537.42651,W,0.735,,041020,,,D*6C
$GPGGA,174727.00,4506.29470,N,07537.42651,W,2,11,0.76,87.4,M,-34.1,M,,0000*51
$GPGSA,A,3,15,18,13,20,23,24,29,05,10,27,30,,1.27,0.76,1.02*07
$PFLAA,3,-140,-45,4,1,C02487!FLR_C02487,0,,0,0.1,1*4C
$PFLAA,2,-263,-495,-1,1,C03745!FLR_C03745,0,,0,,1*71
$PFLAU,2,1,2,1,3,-162,2,4,147*7D
$PGRMZ,72,f,3*2E
$GPRMC,174728.00,A,4506.29482,N,07537.42656,W,0.531,,041020,,,D*6F
$GPGGA,174728.00,4506.29482,N,07537.42656,W,2,11,0.76,87.1,M,-34.1,M,,0000*51
$GPGSA,A,3,15,18,13,20,23,24,29,05,10,27,30,,1.27,0.76,1.02*07
$PFLAA,3,-140,-45,5,1,C02487!FLR_C02487,0,,0,-0.1,1*60
$PFLAA,2,-263,-495,-1,1,C03745!FLR_C03745,0,,0,,1*71
$PFLAU,2,1,2,1,3,-162,2,5,147*7C
$PGRMZ,71,f,3*2D
$GPRMC,174729.00,A,4506.29489,N,07537.42662,W,0.329,,041020,,,D*6D
$GPGGA,174729.00,4506.29489,N,07537.42662,W,2,11,0.81,86.8,M,-34.1,M,,0000*5C
$GPGSA,A,3,15,18,13,20,23,24,29,05,10,27,30,,1.36,0.81,1.09*04
$PFLAA,3,-138,-45,5,1,C02487!FLR_C02487,0,,0,-0.1,1*6F
$PFLAA,2,-263,-495,0,1,C03745!FLR_C03745,0,,0,,1*5D
$PFLAU,2,1,2,1,3,-162,2,5,146*7D
$PGRMZ,69,f,3*24
$GPRMC,174730.00,A,4506.29489,N,07537.42675,W,0.256,,041020,,,D*6A
$GPGGA,174730.00,4506.29489,N,07537.42675,W,2,12,0.70,86.1,M,-34.1,M,,0000*56
$GPGSA,A,3,15,18,13,20,46,23,24,29,05,10,27,30,1.21,0.70,0.99*06
$PFLAA,3,-138,-45,6,1,C02487!FLR_C02487,0,,0,-0.1,1*6C
$PFLAA,2,-263,-495,0,1,C03745!FLR_C03745,0,,0,,1*5D
$PFLAU,2,1,2,1,3,-162,2,6,146*7E
$PGRMZ,70,f,3*2C
$GPRMC,174731.00,A,4506.29483,N,07537.42679,W,0.094,,041020,,,D*61
$GPGGA,174731.00,4506.29483,N,07537.42679,W,2,12,0.73,85.9,M,-34.1,M,,0000*59
$GPGSA,A,3,15,18,13,20,46,23,24,29,05,10,27,30,1.39,0.73,1.18*04
$PFLAA,3,-138,-45,6,1,C02487!FLR_C02487,0,,0,0.1,1*41
$PFLAA,2,-263,-495,0,1,C03745!FLR_C03745,0,,0,,1*5D
$PFLAU,2,1,2,1,3,-162,2,6,146*7E
$PGRMZ,69,f,3*24
$GPRMC,174732.00,A,4506.29484,N,07537.42680,W,0.176,,041020,,,D*6E
$GPGGA,174732.00,4506.29484,N,07537.42680,W,2,12,0.70,85.7,M,-34.1,M,,0000*56
$GPGSA,A,3,15,18,13,20,46,23,24,29,05,10,27,30,1.21,0.70,0.99*06
$PFLAA,3,-137,-44,6,1,C02487!FLR_C02487,0,,0,-0.1,1*62
$PFLAA,2,-263,-495,0,1,C03745!FLR_C03745,0,,0,,1*5D
$PFLAU,2,1,2,1,3,-162,2,6,144*7C
$PGRMZ,71,f,3*2D
$GPRMC,174733.00,A,4506.29486,N,07537.42678,W,0.231,,041020,,,D*6A
$GPGGA,174733.00,4506.29486,N,07537.42678,W,2,12,0.70,85.8,M,-34.1,M,,0000*5D
$GPGSA,A,3,15,18,13,20,46,23,24,29,05,10,27,30,1.21,0.70,0.99*06
$PFLAA,3,-137,-44,6,1,C02487!FLR_C02487,0,,0,-0.1,1*62
$PFLAA,2,-263,-495,0,1,C03745!FLR_C03745,0,,0,,1*5D
$PFLAU,2,1,2,1,3,-162,2,6,144*7C
$PGRMZ,71,f,3*2D
$GPRMC,174734.00,A,4506.29483,N,07537.42677,W,0.086,,041020,,,D*69
$GPGGA,174734.00,4506.29483,N,07537.42677,W,2,12,0.70,85.9,M,-34.1,M,,0000*51
$GPGSA,A,3,15,18,13,20,46,23,24,29,05,10,27,30,1.21,0.70,0.99*06
$PFLAA,3,-137,-44,6,1,C02487!FLR_C02487,0,,0,0.1,1*4F
$PFLAA,2,-263,-495,0,1,C03745!FLR_C03745,0,,0,,1*5D
$PFLAU,2,1,2,1,3,-162,2,6,144*7C
$PGRMZ,72,f,3*2E
$GPRMC,174735.00,A,4506.29477,N,07537.42672,W,0.145,,041020,,,D*68
$GPGGA,174735.00,4506.29477,N,07537.42672,W,2,12,0.70,86.2,M,-34.1,M,,0000*56
$GPGSA,A,3,15,18,13,20,46,23,24,29,05,10,27,30,1.21,0.70,0.99*06
$PFLAA,3,-136,-44,5,1,C02487!FLR_C02487,0,,0,0.1,1*4D
$PFLAA,2,-263,-495,0,1,C03745!FLR_C03745,0,,0,,1*5D
$PFLAU,2,1,2,1,3,-162,2,5,143*78
$PGRMZ,73,f,3*2F
$GPRMC,174736.00,A,4506.29474,N,07537.42667,W,0.089,,041020,,,D*6D
$GPGGA,174736.00,4506.29474,N,07537.42667,W,2,12,0.70,86.5,M,-34.1,M,,0000*55
$GPGSA,A,3,15,18,13,20,46,23,24,29,05,10,27,30,1.21,0.70,0.99*06
$PFLAA,3,-136,-44,5,1,C02487!FLR_C02487,0,,0,0.1,1*4D
$PFLAA,2,-263,-495,0,1,C03745!FLR_C03745,0,,0,,1*5D
$PFLAU,2,1,2,1,3,-162,2,5,143*78
$PGRMZ,72,f,3*2E
$GPRMC,174737.00,A,4506.29472,N,07537.42658,W,0.022,,041020,,,D*67
$GPGGA,174737.00,4506.29472,N,07537.42658,W,2,12,0.70,86.7,M,-34.1,M,,0000*5C
$GPGSA,A,3,15,18,13,20,46,23,24,29,05,10,27,30,1.21,0.70,0.99*06
$PFLAA,3,-136,-44,5,1,C02487!FLR_C02487,0,,0,0.1,1*4D
$PFLAU,1,1,2,1,3,-162,2,5,143*7B
$PGRMZ,74,f,3*28
$GPRMC,174738.00,A,4506.29468,N,07537.42649,W,0.118,,041020,,,D*6B
$GPGGA,174738.00,4506.29468,N,07537.42649,W,2,12,0.70,86.8,M,-34.1,M,,0000*57
$GPGSA,A,3,15,18,13,20,46,23,24,29,05,10,27,30,1.21,0.70,0.99*06
$PFLAA,3,-136,-44,4,1,C02487!FLR_C02487,0,,0,-0.1,1*61
$PFLAA,2,-263,-496,0,1,C03745!FLR_C03745,0,,0,,1*5E
$PFLAU,2,1,2,1,3,-162,2,4,143*79
$PGRMZ,71,f,3*2D
$GPRMC,174739.00,A,4506.29469,N,07537.42641,W,0.045,,041020,,,D*6A
$GPGGA,174739.00,4506.29469,N,07537.42641,W,2,12,0.70,86.9,M,-34.1,M,,0000*5E
$GPGSA,A,3,15,18,13,20,46,23,24,29,05,10,27,30,1.21,0.70,0.99*06
$PFLAA,3,-136,-44,4,1,C02487!FLR_C02487,0,,0,0.1,1*4C
$PFLAA,2,-263,-496,0,1,C03745!FLR_C03745,0,,0,,1*5E
$PFLAU,2,1,2,1,3,-162,2,4,143*79
$PGRMZ,72,f,3*2E
$GPRMC,174740.00,A,4506.29467,N,07537.42627,W,0.085,,041020,,,D*66
$GPGGA,174740.00,4506.29467,N,07537.42627,W,2,12,0.70,87.1,M,-34.1,M,,0000*57
$GPGSA,A,3,15,18,13,20,46,23,24,29,05,10,27,30,1.21,0.70,0.99*06
$PFLAA,3,-135,-46,4,1,C02487!FLR_C02487,0,,0,0.1,1*4D
$PFLAA,2,-263,-496,-1,1,C03745!FLR_C03745,0,,0,,1*72
$PFLAU,2,1,2,1,3,-161,2,4,143*7A
$PGRMZ,74,f,3*28
$GPRMC,174741.00,A,4506.29466,N,07537.42617,W,0.132,,041020,,,D*68
$GPGGA,174741.00,4506.29466,N,07537.42617,W,2,12,0.70,87.3,M,-34.1,M,,0000*56
$GPGSA,A,3,15,18,13,20,46,23,24,29,05,10,27,30,1.21,0.70,0.99*06
$PFLAA,3,-135,-46,4,1,C02487!FLR_C02487,0,,0,0.1,1*4D
$PFLAU,2,1,2,1,3,-161,2,4,143*7A
$PGRMZ,74,f,3*28
$GPRMC,174742.00,A,4506.29464,N,07537.42611,W,0.053,,041020,,,D*69
$GPGGA,174742.00,4506.29464,N,07537.42611,W,2,12,0.70,87.4,M,-34.1,M,,0000*56
$GPGSA,A,3,15,18,13,20,46,23,24,29,05,10,27,30,1.21,0.70,0.99*06
$PFLAA,3,-135,-46,4,1,C02487!FLR_C02487,0,,0,-0.1,1*60
$PFLAU,2,1,2,1,3,-161,2,4,143*7A
$PGRMZ,72,f,3*2E
$GPRMC,174743.00,A,4506.29463,N,07537.42604,W,0.127,,041020,,,D*69
$GPGGA,174743.00,4506.29463,N,07537.42604,W,2,12,0.70,87.4,M,-34.1,M,,0000*54
$GPGSA,A,3,15,18,13,20,46,23,24,29,05,10,27,30,1.21,0.70,0.99*06
$PFLAA,3,-136,-46,4,1,C02487!FLR_C02487,0,,0,0.1,1*4E
$PFLAU,2,1,2,1,3,-161,2,4,143*7A
$PGRMZ,73,f,3*2F
$GPRMC,174744.00,A,4506.29463,N,07537.42604,W,0.158,,041020,,,D*66
$GPGGA,174744.00,4506.29463,N,07537.42604,W,2,12,0.70,87.6,M,-34.1,M,,0000*51
$GPGSA,A,3,15,18,13,20,46,23,24,29,05,10,27,30,1.21,0.70,0.99*06
$PFLAA,3,-136,-46,4,1,C02487!FLR_C02487,0,,0,0.1,1*4E
$PFLAA,2,-264,-496,-2,1,C03745!FLR_C03745,0,,0,,1*76
$PFLAU,2,1,2,1,3,-161,2,4,143*7A
$PGRMZ,72,f,3*2E
$GPRMC,174745.00,A,4506.29462,N,07537.42602,W,0.102,,041020,,,D*6F
$GPGGA,174745.00,4506.29462,N,07537.42602,W,2,12,0.70,87.7,M,-34.1,M,,0000*56
$GPGSA,A,3,15,18,13,20,46,23,24,29,05,10,27,30,1.21,0.70,0.99*06
$PFLAA,3,-136,-46,4,1,C02487!FLR_C02487,0,,0,-0.1,1*63
$PFLAA,2,-264,-496,-2,1,C03745!FLR_C03745,0,,0,,1*76
$PFLAU,2,1,2,1,3,-161,2,4,143*7A
$PGRMZ,72,f,3*2E
$GPRMC,174746.00,A,4506.29456,N,07537.42603,W,0.128,,041020,,,D*62
$GPGGA,174746.00,4506.29456,N,07537.42603,W,2,12,0.70,88.1,M,-34.1,M,,0000*5A
$GPGSA,A,3,15,18,13,20,46,23,24,29,05,10,27,30,1.21,0.70,0.99*06
$PFLAA,3,-135,-46,4,1,C02487!FLR_C02487,0,,0,-0.1,1*60
$PFLAA,2,-264,-496,-3,1,C03745!FLR_C03745,0,,0,,1*77
$PFLAU,2,1,2,1,3,-161,2,4,143*7A
$PGRMZ,74,f,3*28
$GPRMC,174747.00,A,4506.29451,N,07537.42599,W,0.241,,041020,,,D*68
$GPGGA,174747.00,4506.29451,N,07537.42599,W,2,12,0.70,88.1,M,-34.1,M,,0000*5C
$GPGSA,A,3,15,18,13,20,46,23,24,29,05,10,27,30,1.21,0.70,0.99*06
$PFLAA,3,-135,-46,4,1,C02487!FLR_C02487,0,,0,0.0,1*4C
$PFLAA,2,-264,-496,-3,1,C03745!FLR_C03745,0,,0,,1*77
$PFLAU,2,1,2,1,3,-161,2,4,143*7A
$PGRMZ,73,f,3*2F
$GPRMC,174748.00,A,4506.29454,N,07537.42592,W,0.336,,041020,,,D*68
$GPGGA,174748.00,4506.29454,N,07537.42592,W,2,12,0.70,87.9,M,-34.1,M,,0000*5A
$GPGSA,A,3,15,18,13,20,46,23,24,29,05,10,27,30,1.21,0.70,0.99*06
$PFLAA,3,-135,-46,4,1,C02487!FLR_C02487,0,,0,0.1,1*4D
$PFLAA,2,-264,-497,-1,1,C03745!FLR_C03745,0,,0,,1*74
$PFLAU,2,1,2,1,3,-161,2,4,143*7A
$PGRMZ,74,f,3*28
$GPRMC,174749.00,A,4506.29441,N,07537.42572,W,0.380,,041020,,,D*6E
$GPGGA,174749.00,4506.29441,N,07537.42572,W,2,12,0.72,87.6,M,-34.1,M,,0000*5C
$GPGSA,A,3,15,18,13,20,46,23,24,29,05,10,27,30,1.24,0.72,1.01*01
$PFLAA,3,-134,-46,4,1,C02487!FLR_C02487,0,,0,-0.1,1*61
$PFLAA,2,-264,-497,-1,1,C03745!FLR_C03745,0,,0,,1*74
$PFLAU,2,1,2,1,3,-161,2,4,141*78
$PGRMZ,71,f,3*2D
$GPRMC,174750.00,A,4506.29440,N,07537.42571,W,0.161,,041020,,,D*69
$GPGGA,174750.00,4506.29440,N,07537.42571,W,2,12,0.70,88.1,M,-34.1,M,,0000*5C
$GPGSA,A,3,15,18,13,20,46,23,24,29,05,10,27,30,1.21,0.70,0.99*06
$PFLAA,3,-134,-46,4,1,C02487!FLR_C02487,0,,0,-0.1,1*61
$PFLAA,2,-264,-497,-2,1,C03745!FLR_C03745,0,,0,,1*77
$PFLAU,2,1,2,1,3,-161,2,4,141*78
$PGRMZ,74,f,3*28
$GPRMC,174751.00,A,4506.29441,N,07537.42570,W,0.085,,041020,,,D*63
$GPGGA,174751.00,4506.29441,N,07537.42570,W,2,12,0.70,88.6,M,-34.1,M,,0000*5A
$GPGSA,A,3,15,18,13,20,46,23,24,29,05,10,27,30,1.21,0.70,0.99*06
$PFLAA,3,-133,-43,2,1,C02487!FLR_C02487,45,,0,-0.1,1*54
$PFLAA,2,-264,-497,-2,1,C03745!FLR_C03745,0,,0,,1*77
$PFLAU,2,1,2,1,3,-162,2,2,139*72
$PGRMZ,73,f,3*2F
$GPRMC,174752.00,A,4506.29447,N,07537.42563,W,0.185,,041020,,,D*65
$GPGGA,174752.00,4506.29447,N,07537.42563,W,2,12,0.70,88.8,M,-34.1,M,,0000*53
$GPGSA,A,3,15,18,13,20,46,23,24,29,05,10,27,30,1.21,0.70,0.99*06
$PFLAA,3,-130,-45,2,1,C02487!FLR_C02487,0,,0,0.1,1*4D
$PFLAA,2,-264,-497,-2,1,C03745!FLR_C03745,0,,0,,1*77
$PFLAU,2,1,2,1,3,-161,2,2,138*70
$PGRMZ,73,f,3*2F
$GPRMC,174753.00,A,4506.29458,N,07537.42561,W,0.149,,041020,,,D*68
$GPGGA,174753.00,4506.29458,N,07537.42561,W,2,12,0.70,89.1,M,-34.1,M,,0000*56
$GPGSA,A,3,15,18,13,20,46,23,24,29,05,10,27,30,1.21,0.70,0.99*06
$PFLAA,3,-129,-44,2,1,C02487!FLR_C02487,45,,0,-0.1,1*58
$PFLAA,2,-264,-497,-3,1,C03745!FLR_C03745,0,,0,,1*76
$PFLAU,2,1,2,1,3,-161,2,2,137*7F
$PGRMZ,75,f,3*29
$GPRMC,174754.00,A,4506.29460,N,07537.42554,W,0.126,,041020,,,D*6B
$GPGGA,174754.00,4506.29460,N,07537.42554,W,2,12,0.70,89.4,M,-34.1,M,,0000*59
$GPGSA,A,3,15,18,13,20,46,23,24,29,05,10,27,30,1.21,0.70,0.99*06
$PFLAA,3,-130,-44,1,1,C02487!FLR_C02487,26,,0,0.1,1*7B
$PFLAA,2,-264,-497,-3,1,C03745!FLR_C03745,0,,0,,1*76
$PFLAU,2,1,2,1,3,-161,2,1,137*7C
$PGRMZ,74,f,3*28
$GPRMC,174755.00,A,4506.29456,N,07537.42543,W,0.045,,041020,,,D*6D
$GPGGA,174755.00,4506.29456,N,07537.42543,W,2,12,0.70,89.6,M,-34.1,M,,0000*59
$GPGSA,A,3,15,18,13,20,46,23,24,29,05,10,27,30,1.21,0.70,0.99*06
$PFLAA,3,-129,-44,0,1,C02487!FLR_C02487,0,,0,0.1,1*46
$PFLAA,2,-264,-497,-3,1,C03745!FLR_C03745,0,,0,,1*76
$PFLAU,2,1,2,1,3,-161,2,0,137*7D
$PGRMZ,73,f,3*2F
$GPRMC,174756.00,A,4506.29453,N,07537.42534,W,0.100,,041020,,,D*6B
$GPGGA,174756.00,4506.29453,N,07537.42534,W,2,12,0.70,89.9,M,-34.1,M,,0000*50
$GPGSA,A,3,15,18,13,20,46,23,24,29,05,10,27,30,1.21,0.70,0.99*06
$PFLAA,3,-129,-44,0,1,C02487!FLR_C02487,0,,0,-0.1,1*6B
$PFLAU,1,1,2,1,3,-161,2,0,137*7E
$PGRMZ,74,f,3*28
$GPRMC,174757.00,A,4506.29450,N,07537.42528,W,0.078,,041020,,,D*6A
$GPGGA,174757.00,4506.29450,N,07537.42528,W,2,12,0.70,90.3,M,-34.1,M,,0000*5D
$GPGSA,A,3,15,18,13,20,46,23,24,29,05,10,27,30,1.21,0.70,0.99*06
$PFLAA,3,-129,-44,0,1,C02487!FLR_C02487,0,,0,0.0,1*47
$PFLAU,1,1,2,1,3,-161,2,0,137*7E
$PGRMZ,74,f,3*28
$GPRMC,174758.00,A,4506.29450,N,07537.42523,W,0.080,,041020,,,D*69
$GPGGA,174758.00,4506.29450,N,07537.42523,W,2,12,0.70,91.0,M,-34.1,M,,0000*5B
$GPGSA,A,3,15,18,13,20,46,23,24,29,05,10,27,30,1.21,0.70,0.99*06
$PFLAA,3,-129,-44,0,1,C02487!FLR_C02487,0,,0,0.1,1*46
$PFLAU,1,1,2,1,3,-161,2,0,137*7E
$PGRMZ,73,f,3*2F
$GPRMC,174759.00,A,4506.29455,N,07537.42520,W,0.071,,041020,,,D*60
$GPGGA,174759.00,4506.29455,N,07537.42520,W,2,12,0.70,91.5,M,-34.1,M,,0000*59
$GPGSA,A,3,15,18,13,20,46,23,24,29,05,10,27,30,1.21,0.70,0.99*06
$PFLAA,3,-129,-44,-1,1,C02487!FLR_C02487,0,,0,0.1,1*6A
$PFLAA,2,-264,-497,-5,1,C03745!FLR_C03745,0,,0,,1*70
$PFLAU,2,1,2,1,3,-161,2,-1,137*51
$GPRMC,174800.00,A,4506.29458,N,07537.42518,W,0.137,,041020,,,D*66
$PGRMZ,73,f,3*2F
$GPGGA,174800.00,4506.29458,N,07537.42518,W,2,12,0.70,92.0,M,-34.1,M,,0000*5A
$GPGSA,A,3,15,18,13,20,46,23,24,29,05,10,27,30,1.21,0.70,0.99*06
$PFLAA,3,-129,-44,-1,1,C02487!FLR_C02487,0,,0,0.0,1*6B
$PFLAA,2,-264,-497,-5,1,C03745!FLR_C03745,0,,0,,1*70
$PFLAU,2,1,2,1,3,-161,2,-1,137*51
$GPRMC,174801.00,A,4506.29455,N,07537.42508,W,0.120,,041020,,,D*6D
$PGRMZ,73,f,3*2F
$GPGGA,174801.00,4506.29455,N,07537.42508,W,2,12,0.73,92.7,M,-34.1,M,,0000*53
$GPGSA,A,3,15,18,13,20,46,23,24,29,05,10,27,30,1.26,0.73,1.03*00
$PFLAA,3,-130,-44,-1,1,C02487!FLR_C02487,0,,0,-0.1,1*4F
$PFLAA,2,-264,-497,-6,1,C03745!FLR_C03745,0,,0,,1*73
$PFLAU,2,1,2,1,3,-161,2,-1,137*51
$GPRMC,174802.00,A,4506.29453,N,07537.42501,W,0.022,,041020,,,D*62
$PGRMZ,72,f,3*2E
$GPGGA,174802.00,4506.29453,N,07537.42501,W,2,12,0.73,93.2,M,-34.1,M,,0000*5B
$GPGSA,A,3,15,18,13,20,46,23,24,29,05,10,27,30,1.26,0.73,1.03*00
$PFLAA,3,-130,-44,-2,1,C02487!FLR_C02487,0,,0,-0.1,1*4C
$PFLAA,2,-264,-497,-7,1,C03745!FLR_C03745,0,,0,,1*72
$PFLAU,2,1,2,1,3,-161,2,-2,137*52
$GPRMC,174803.00,A,4506.29448,N,07537.42498,W,0.204,,041020,,,D*6E
$PGRMZ,74,f,3*28
$GPGGA,174803.00,4506.29448,N,07537.42498,W,2,12,0.76,93.5,M,-34.1,M,,0000*53
$GPGSA,A,3,15,18,13,20,46,23,24,29,05,10,27,30,1.32,0.76,1.08*0B
$PFLAA,3,-130,-44,-2,1,C02487!FLR_C02487,0,,0,0.1,1*61
$PFLAA,2,-264,-497,-7,1,C03745!FLR_C03745,0,,0,,1*72
$PFLAU,2,1,2,1,3,-161,2,-2,137*52
$GPRMC,174804.00,A,4506.29445,N,07537.42504,W,0.225,,041020,,,D*63
$PGRMZ,75,f,3*29
$GPGGA,174804.00,4506.29445,N,07537.42504,W,2,12,0.73,93.4,M,-34.1,M,,0000*59
$GPGSA,A,3,15,18,13,20,46,23,24,29,05,10,27,30,1.26,0.73,1.03*00
$PFLAA,3,-129,-47,-2,1,C02487!FLR_C02487,0,,0,0.1,1*6A
$PFLAU,1,1,2,1,3,-160,2,-2,137*50
$GPRMC,174805.00,A,4506.29443,N,07537.42504,W,0.163,,041020,,,D*65
$PGRMZ,73,f,3*2F
$GPGGA,174805.00,4506.29443,N,07537.42504,W,2,12,0.73,93.3,M,-34.1,M,,0000*59
$GPGSA,A,3,15,18,13,20,46,23,24,29,05,10,27,30,1.26,0.73,1.03*00
$PFLAA,3,-129,-47,-2,1,C02487!FLR_C02487,0,,0,0.1,1*6A
$PFLAU,1,1,2,1,3,-160,2,-2,137*50
$GPRMC,174806.00,A,4506.29438,N,07537.42489,W,0.409,,041020,,,D*67
$PGRMZ,75,f,3*29
$GPGGA,174806.00,4506.29438,N,07537.42489,W,2,12,0.76,93.5,M,-34.1,M,,0000*51
$GPGSA,A,3,15,18,13,20,46,23,24,29,05,10,27,30,1.32,0.76,1.08*0B
$PFLAA,3,-129,-47,-2,1,C02487!FLR_C02487,0,,0,0.1,1*6A
$PFLAU,1,1,2,1,3,-160,2,-2,137*50
$GPRMC,174807.00,A,4506.29443,N,07537.42482,W,0.256,,041020,,,D*6D
$PGRMZ,73,f,3*2F
$GPGGA,174807.00,4506.29443,N,07537.42482,W,2,12,0.76,93.4,M,-34.1,M,,0000*56
$GPGSA,A,3,15,18,13,20,46,23,24,29,05,10,27,30,1.32,0.76,1.08*0B
$PFLAA,3,-129,-47,-2,1,C02487!FLR_C02487,0,,0,0.1,1*6A
$PFLAU,1,1,2,1,3,-160,2,-2,137*50
$GPRMC,174808.00,A,4506.29448,N,07537.42483,W,0.211,,041020,,,D*6B
$PGRMZ,73,f,3*2F
$GPGGA,174808.00,4506.29448,N,07537.42483,W,2,12,0.76,93.1,M,-34.1,M,,0000*56
$GPGSA,A,3,15,18,13,20,46,23,24,29,05,10,27,30,1.32,0.76,1.08*0B
$PFLAA,3,-129,-47,-2,1,C02487!FLR_C02487,0,,0,0.1,1*6A
$PFLAU,1,1,2,1,3,-160,2,-2,137*50
$GPRMC,174809.00,A,4506.29453,N,07537.42479,W,0.112,,041020,,,D*65
$PGRMZ,74,f,3*28
$GPGGA,174809.00,4506.29453,N,07537.42479,W,2,12,0.73,92.7,M,-34.1,M,,0000*5A
$GPGSA,A,3,15,18,13,20,46,23,24,29,05,10,27,30,1.26,0.73,1.03*00
$PFLAA,3,-129,-47,-1,1,C02487!FLR_C02487,0,,0,0.1,1*69
$PFLAU,1,1,2,1,3,-160,2,-1,137*53
$GPRMC,174810.00,A,4506.29454,N,07537.42470,W,0.163,,041020,,,D*65
$PGRMZ,74,f,3*28
$GPGGA,174810.00,4506.29454,N,07537.42470,W,2,12,0.73,92.7,M,-34.1,M,,0000*5C
$GPGSA,A,3,15,18,13,20,46,23,24,29,05,10,27,30,1.26,0.73,1.03*00
$PFLAA,3,-129,-47,-1,1,C02487!FLR_C02487,0,,0,-0.1,1*44
$PFLAA,2,-264,-498,-6,1,C03745!FLR_C03745,0,,0,,1*7C
$PFLAU,2,1,2,1,3,-160,2,-1,137*50
$GPRMC,174811.00,A,4506.29456,N,07537.42459,W,0.143,,041020,,,D*6F
$PGRMZ,74,f,3*28
$GPGGA,174811.00,4506.29456,N,07537.42459,W,2,12,0.73,92.5,M,-34.1,M,,0000*56
$GPGSA,A,3,15,18,13,20,46,23,24,29,05,10,27,30,1.26,0.73,1.03*00
$PFLAA,3,-129,-47,-1,1,C02487!FLR_C02487,0,,0,0.1,1*69
$PFLAA,2,-264,-498,-6,1,C03745!FLR_C03745,0,,0,,1*7C
$PFLAU,2,1,2,1,3,-160,2,-1,138*5F
$GPRMC,174812.00,A,4506.29457,N,07537.42452,W,0.025,,041020,,,D*67
$PGRMZ,74,f,3*28
$GPGGA,174812.00,4506.29457,N,07537.42452,W,2,12,0.70,92.5,M,-34.1,M,,0000*5C
$GPGSA,A,3,15,18,13,20,46,23,24,29,05,10,27,30,1.21,0.70,0.99*06
$PFLAA,3,-129,-47,-1,1,C02487!FLR_C02487,0,,0,0.1,1*69
$PFLAA,2,-265,-498,-6,1,C03745!FLR_C03745,0,,0,,1*7D
$PFLAU,2,1,2,1,3,-160,2,-1,138*5F
$GPRMC,174813.00,A,4506.29460,N,07537.42451,W,0.110,,041020,,,D*66
$PGRMZ,77,f,3*2B
$GPGGA,174813.00,4506.29460,N,07537.42451,W,2,12,0.70,92.1,M,-34.1,M,,0000*5E
$GPGSA,A,3,15,18,13,20,46,23,24,29,05,10,27,30,1.21,0.70,0.99*06
$PFLAA,3,-130,-47,-1,1,C02487!FLR_C02487,0,,0,0.1,1*61
$PFLAA,2,-265,-498,-6,1,C03745!FLR_C03745,0,,0,,1*7D
$PFLAU,2,1,2,1,3,-160,2,-1,138*5F
$GPRMC,174814.00,A,4506.29460,N,07537.42451,W,0.062,,041020,,,D*65
$PGRMZ,75,f,3*29
$GPGGA,174814.00,4506.29460,N,07537.42451,W,2,12,0.70,91.5,M,-34.1,M,,0000*5E
$GPGSA,A,3,15,18,13,20,46,23,24,29,05,10,27,30,1.21,0.70,0.99*06
$PFLAA,3,-130,-47,0,1,C02487!FLR_C02487,0,,0,-0.1,1*60
$PFLAA,2,-264,-498,-5,1,C03745!FLR_C03745,90,,0,,1*46
$PFLAU,2,1,2,1,3,-160,2,0,138*73
$GPRMC,174815.00,A,4506.29458,N,07537.42449,W,0.048,,041020,,,D*6E
$PGRMZ,76,f,3*2A
$GPGGA,174815.00,4506.29458,N,07537.42449,W,2,12,0.70,91.0,M,-34.1,M,,0000*58
$GPGSA,A,3,15,18,13,20,46,23,24,29,05,10,27,30,1.21,0.70,0.99*06
$PFLAA,3,-129,-47,0,1,C02487!FLR_C02487,0,,0,-0.1,1*68
$PFLAA,2,-264,-498,-4,1,C03745!FLR_C03745,90,,0,,1*47
$PFLAU,2,1,2,1,3,-160,2,0,138*73
$GPRMC,174816.00,A,4506.29455,N,07537.42448,W,0.054,,041020,,,D*6C
$PGRMZ,77,f,3*2B
$GPGGA,174816.00,4506.29455,N,07537.42448,W,2,12,0.70,90.9,M,-34.1,M,,0000*5F
$GPGSA,A,3,15,18,13,20,46,23,24,29,05,10,27,30,1.21,0.70,0.99*06
$PFLAA,3,-129,-47,0,1,C02487!FLR_C02487,0,,0,0.0,1*44
$PFLAA,2,-264,-498,-4,1,C03745!FLR_C03745,90,,0,,1*47
$PFLAU,2,1,2,1,3,-160,2,0,138*73
$GPRMC,174817.00,A,4506.29452,N,07537.42450,W,0.146,,041020,,,D*61
$PGRMZ,79,f,3*25
$GPGGA,174817.00,4506.29452,N,07537.42450,W,2,12,0.70,90.7,M,-34.1,M,,0000*5E
$GPGSA,A,3,15,18,13,20,46,23,24,29,05,10,27,30,1.21,0.70,0.99*06
$PFLAA,3,-129,-47,0,1,C02487!FLR_C02487,0,,0,-0.1,1*68
$PFLAA,2,-264,-498,-4,1,C03745!FLR_C03745,90,,0,,1*47
$PFLAU,2,1,2,1,3,-160,2,0,138*73
$GPRMC,174818.00,A,4506.29455,N,07537.42452,W,0.294,,041020,,,D*67
$PGRMZ,77,f,3*2B
$GPGGA,174818.00,4506.29455,N,07537.42452,W,2,12,0.70,90.7,M,-34.1,M,,0000*54
$GPGSA,A,3,15,18,13,20,46,23,24,29,05,10,27,30,1.21,0.70,0.99*06
$PFLAA,3,-129,-47,0,1,C02487!FLR_C02487,0,,0,-0.1,1*68
$PFLAA,2,-264,-498,-4,1,C03745!FLR_C03745,90,,0,,1*47
$PFLAU,2,1,2,1,3,-160,2,0,138*73
$GPRMC,174819.00,A,4506.29458,N,07537.42454,W,0.078,,041020,,,D*6D
$PGRMZ,80,f,3*23
$GPGGA,174819.00,4506.29458,N,07537.42454,W,2,12,0.70,90.5,M,-34.1,M,,0000*5C
$GPGSA,A,3,15,18,13,20,46,23,24,29,05,10,27,30,1.21,0.70,0.99*06
$PFLAA,3,-129,-47,0,1,C02487!FLR_C02487,0,,0,-0.1,1*68
$PFLAA,2,-264,-498,-4,1,C03745!FLR_C03745,90,,0,,1*47
$PFLAU,2,1,2,1,3,-160,2,0,138*73
$GPRMC,174820.00,A,4506.29458,N,07537.42459,W,0.203,,041020,,,D*64
$PGRMZ,82,f,3*21
$GPGGA,174820.00,4506.29458,N,07537.42459,W,2,12,0.70,90.3,M,-34.1,M,,0000*5D
$GPGSA,A,3,15,18,13,20,46,23,24,29,05,10,27,30,1.21,0.70,0.99*06
$PFLAA,3,-129,-47,0,1,C02487!FLR_C02487,0,,0,-0.1,1*68
$PFLAA,2,-264,-497,-5,1,C03745!FLR_C03745,0,,0,,1*70
$PFLAU,2,1,2,1,3,-160,2,0,138*73
$GPRMC,174821.00,A,4506.29464,N,07537.42461,W,0.300,,041020,,,D*63
$PGRMZ,83,f,3*20
$GPGGA,174821.00,4506.29464,N,07537.42461,W,2,12,0.70,90.3,M,-34.1,M,,0000*58
$GPGSA,A,3,15,18,13,20,46,23,24,29,05,10,27,30,1.21,0.70,0.99*06
$PFLAA,3,-130,-47,0,1,C02487!FLR_C02487,0,,0,-0.1,1*60
$PFLAA,2,-264,-497,-5,1,C03745!FLR_C03745,0,,0,,1*70
$PFLAU,2,1,2,1,3,-160,2,0,138*73
$GPRMC,174822.00,A,4506.29470,N,07537.42464,W,0.174,,041020,,,D*61
$PGRMZ,86,f,3*25
$GPGGA,174822.00,4506.29470,N,07537.42464,W,2,12,0.70,90.1,M,-34.1,M,,0000*59
$GPGSA,A,3,15,18,13,20,46,23,24,29,05,10,27,30,1.21,0.70,0.99*06
$PFLAA,3,-130,-47,0,1,C02487!FLR_C02487,0,,0,-0.1,1*60
$PFLAA,2,-264,-496,-5,1,C03745!FLR_C03745,0,,0,,1*71
$PFLAU,2,1,2,1,3,-160,2,0,138*73
$GPRMC,174823.00,A,4506.29473,N,07537.42468,W,0.076,,041020,,,D*6C
$PGRMZ,86,f,3*25
$GPGGA,174823.00,4506.29473,N,07537.42468,W,2,12,0.70,90.1,M,-34.1,M,,0000*57
$GPGSA,A,3,15,18,13,20,46,23,24,29,05,10,27,30,1.21,0.70,0.99*06
$PFLAA,3,-130,-47,0,1,C02487!FLR_C02487,0,,0,0.1,1*4D
$PFLAA,2,-264,-496,-5,1,C03745!FLR_C03745,0,,0,,1*71
$PFLAU,2,1,2,1,3,-160,2,0,138*73
$GPRMC,174824.00,A,4506.29479,N,07537.42472,W,0.177,,041020,,,D*6A
$PGRMZ,88,f,3*2B
$GPGGA,174824.00,4506.29479,N,07537.42472,W,2,12,0.70,90.0,M,-34.1,M,,0000*50
$GPGSA,A,3,15,18,13,20,46,23,24,29,05,10,27,30,1.21,0.70,0.99*06
$PFLAA,3,-128,-46,0,1,C02487!FLR_C02487,0,,0,0.1,1*45
$PFLAA,2,-264,-496,-4,1,C03745!FLR_C03745,0,,0,,1*70
$PFLAU,2,1,2,1,3,-160,2,0,137*7C
$GPRMC,174825.00,A,4506.29482,N,07537.42474,W,0.144,,041020,,,D*69
$PGRMZ,88,f,3*2B
$GPGGA,174825.00,4506.29482,N,07537.42474,W,2,12,0.70,89.9,M,-34.1,M,,0000*52
$GPGSA,A,3,15,18,13,20,46,23,24,29,05,10,27,30,1.21,0.70,0.99*06
$PFLAA,3,-130,-47,0,1,C02487!FLR_C02487,0,,0,0.1,1*4D
$PFLAA,2,-264,-496,-4,1,C03745!FLR_C03745,0,,0,,1*70
$PFLAU,2,1,2,1,3,-160,2,0,138*73
$GPRMC,174826.00,A,4506.29482,N,07537.42476,W,0.252,,041020,,,D*6C
$PGRMZ,90,f,3*22
$GPGGA,174826.00,4506.29482,N,07537.42476,W,2,12,0.70,90.0,M,-34.1,M,,0000*52
$GPGSA,A,3,15,18,13,20,46,23,24,29,05,10,27,30,1.21,0.70,0.99*06
$PFLAA,3,-130,-47,0,1,C02487!FLR_C02487,0,,0,0.1,1*4D
$PFLAA,2,-263,-496,-4,1,C03745!FLR_C03745,0,,0,,1*77
$PFLAU,2,1,2,1,3,-160,2,0,138*73
$GPRMC,174827.00,A,4506.29484,N,07537.42477,W,0.149,,041020,,,D*63
$PGRMZ,90,f,3*22
$GPGGA,174827.00,4506.29484,N,07537.42477,W,2,12,0.70,90.0,M,-34.1,M,,0000*54
$GPGSA,A,3,15,18,13,20,46,23,24,29,05,10,27,30,1.21,0.70,0.99*06
$PFLAA,3,-130,-45,0,1,C02487!FLR_C02487,0,,0,-0.1,1*62
$PFLAA,2,-263,-496,-4,1,C03745!FLR_C03745,0,,0,,1*77
$PFLAU,2,1,2,1,3,-161,2,0,138*72
$GPRMC,174828.00,A,4506.29488,N,07537.42479,W,0.040,,041020,,,D*66
$PGRMZ,89,f,3*2A
$GPGGA,174828.00,4506.29488,N,07537.42479,W,2,12,0.70,89.7,M,-34.1,M,,0000*56
$GPGSA,A,3,15,18,13,20,46,23,24,29,05,10,27,30,1.21,0.70,0.99*06
$PFLAA,3,-129,-44,0,1,C02487!FLR_C02487,0,,0,-0.1,1*6B
$PFLAA,2,-263,-496,-4,1,C03745!FLR_C03745,0,,0,,1*77
$PFLAU,2,1,2,1,3,-161,2,0,137*7D
$GPRMC,174829.00,A,4506.29491,N,07537.42483,W,0.066,,041020,,,D*6E
$PGRMZ,89,f,3*2A
$GPGGA,174829.00,4506.29491,N,07537.42483,W,2,12,0.70,89.4,M,-34.1,M,,0000*59
$GPGSA,A,3,15,18,13,20,46,23,24,29,05,10,27,30,1.21,0.70,0.99*06
$PFLAA,3,-130,-45,0,1,C02487!FLR_C02487,0,,0,0.1,1*4F
$PFLAA,2,-263,-496,-4,1,C03745!FLR_C03745,0,,0,,1*77
$PFLAU,2,1,2,1,3,-161,2,0,138*72
$GPRMC,174830.00,A,4506.29493,N,07537.42489,W,0.205,,041020,,,D*69
$PGRMZ,88,f,3*2B
$GPGGA,174830.00,4506.29493,N,07537.42489,W,2,12,0.70,89.2,M,-34.1,M,,0000*5F
$GPGSA,A,3,15,18,13,20,46,23,24,29,05,10,27,30,1.21,0.70,0.99*06
$PFLAA,3,-130,-47,0,1,C02487!FLR_C02487,0,,0,0.1,1*4D
$PFLAA,2,-263,-496,-4,1,C03745!FLR_C03745,0,,0,,1*77
$PFLAU,2,1,2,1,3,-160,2,0,138*73
$GPRMC,174831.00,A,4506.29491,N,07537.42492,W,0.207,,041020,,,D*62
$PGRMZ,91,f,3*23
$GPGGA,174831.00,4506.29491,N,07537.42492,W,2,12,0.73,89.3,M,-34.1,M,,0000*54
$GPGSA,A,3,15,18,13,20,46,23,24,29,05,10,27,30,1.26,0.73,1.03*00
$PFLAA,3,-130,-47,0,1,C02487!FLR_C02487,0,,0,-0.1,1*60
$PFLAA,2,-263,-496,-3,1,C03745!FLR_C03745,0,,0,,1*70
$PFLAU,2,1,2,1,3,-160,2,0,138*73
$GPRMC,174832.00,A,4506.29492,N,07537.42492,W,0.136,,041020,,,D*63
$PGRMZ,88,f,3*2B
$GPGGA,174832.00,4506.29492,N,07537.42492,W,2,12,0.73,89.1,M,-34.1,M,,0000*56
$GPGSA,A,3,15,18,13,20,46,23,24,29,05,10,27,30,1.26,0.73,1.03*00
$PFLAA,3,-130,-47,1,1,C02487!FLR_C02487,0,,0,-0.1,1*61
$PFLAA,2,-263,-496,-3,1,C03745!FLR_C03745,0,,0,,1*70
$PFLAU,2,1,2,1,3,-160,2,1,138*72
$GPRMC,174833.00,A,4506.29494,N,07537.42492,W,0.058,,041020,,,D*6D
$PGRMZ,90,f,3*22
$GPGGA,174833.00,4506.29494,N,07537.42492,W,2,12,0.73,88.7,M,-34.1,M,,0000*56
$GPGSA,A,3,15,18,13,20,46,23,24,29,05,10,27,30,1.26,0.73,1.03*00
$PFLAA,3,-130,-47,1,1,C02487!FLR_C02487,0,,0,0.1,1*4C
$PFLAA,2,-263,-496,-2,1,C03745!FLR_C03745,0,,0,,1*71
$PFLAU,2,1,2,1,3,-160,2,1,138*72
$GPRMC,174834.00,A,4506.29492,N,07537.42497,W,0.326,,041020,,,D*63
$PGRMZ,91,f,3*23
$GPGGA,174834.00,4506.29492,N,07537.42497,W,2,12,0.76,88.5,M,-34.1,M,,0000*55
$GPGSA,A,3,15,18,13,20,46,23,24,29,05,10,27,30,1.32,0.76,1.08*0B
$PFLAA,3,-130,-47,1,1,C02487!FLR_C02487,0,,0,0.1,1*4C
$PFLAA,2,-263,-496,-2,1,C03745!FLR_C03745,0,,0,,1*71
$PFLAU,2,1,2,1,3,-160,2,1,138*72
$GPRMC,174835.00,A,4506.29484,N,07537.42505,W,0.118,,041020,,,D*60
$PGRMZ,91,f,3*23
$GPGGA,174835.00,4506.29484,N,07537.42505,W,2,12,0.70,88.2,M,-34.1,M,,0000*58
$GPGSA,A,3,15,18,13,20,46,23,24,29,05,10,27,30,1.21,0.70,0.99*06
$PFLAA,3,-130,-47,2,1,C02487!FLR_C02487,0,,0,-0.1,1*62
$PFLAA,2,-263,-496,-2,1,C03745!FLR_C03745,0,,0,,1*71
$PFLAU,2,1,2,1,3,-160,2,2,138*71
$GPRMC,174836.00,A,4506.29481,N,07537.42508,W,0.100,,041020,,,D*62
$PGRMZ,91,f,3*23
$GPGGA,174836.00,4506.29481,N,07537.42508,W,2,12,0.70,87.8,M,-34.1,M,,0000*56
$GPGSA,A,3,15,18,13,20,46,23,24,29,05,10,27,30,1.21,0.70,0.99*06
$PFLAA,3,-130,-47,3,1,C02487!FLR_C02487,0,,0,-0.1,1*63
$PFLAA,2,-263,-496,-1,1,C03745!FLR_C03745,0,,0,,1*72
$PFLAU,2,1,2,1,3,-160,2,3,138*70
$GPRMC,174837.00,A,4506.29475,N,07537.42509,W,0.223,,041020,,,D*6B
$PGRMZ,92,f,3*20
$GPGGA,174837.00,4506.29475,N,07537.42509,W,2,12,0.73,87.5,M,-34.1,M,,0000*53
$GPGSA,A,3,15,18,13,20,46,23,24,29,05,10,27,30,1.26,0.73,1.03*00
$PFLAA,3,-130,-47,3,1,C02487!FLR_C02487,0,,0,0.1,1*4E
$PFLAA,2,-263,-496,-1,1,C03745!FLR_C03745,0,,0,,1*72
$PFLAU,2,1,2,1,3,-160,2,3,138*70
$GPRMC,174838.00,A,4506.29463,N,07537.42503,W,0.587,,041020,,,D*60
$PGRMZ,95,f,3*27
$GPGGA,174838.00,4506.29463,N,07537.42503,W,2,12,0.70,87.3,M,-34.1,M,,0000*54
$GPGSA,A,3,15,18,13,20,46,23,24,29,05,10,27,30,1.21,0.70,0.99*06
$PFLAA,3,-130,-47,3,1,C02487!FLR_C02487,0,,0,0.1,1*4E
$PFLAA,2,-263,-496,-1,1,C03745!FLR_C03745,0,,0,,1*72
$PFLAU,2,1,2,1,3,-160,2,3,138*70
$GPRMC,174839.00,A,4506.29442,N,07537.42505,W,0.476,,041020,,,D*6B
$PGRMZ,92,f,3*20
$GPGGA,174839.00,4506.29442,N,07537.42505,W,2,12,0.70,87.6,M,-34.1,M,,0000*55
$GPGSA,A,3,15,18,13,20,46,23,24,29,05,10,27,30,1.21,0.70,0.99*06
$PFLAA,3,-129,-47,3,1,C02487!FLR_C02487,0,,0,-0.1,1*6B
$PFLAA,2,-263,-496,-1,1,C03745!FLR_C03745,0,,0,,1*72
$PFLAU,2,1,2,1,3,-160,2,3,137*7F
$GPRMC,174840.00,A,4506.29429,N,07537.42510,W,0.583,,041020,,,D*67
$PGRMZ,92,f,3*20
$GPGGA,174840.00,4506.29429,N,07537.42510,W,2,12,0.70,87.5,M,-34.1,M,,0000*51
$GPGSA,A,3,15,18,13,20,46,23,24,29,05,10,27,30,1.21,0.70,0.99*06
$PFLAA,3,-129,-47,3,1,C02487!FLR_C02487,0,,0,-0.1,1*6B
$PFLAA,2,-263,-496,-1,1,C03745!FLR_C03745,0,,0,,1*72
$PFLAU,2,1,2,1,3,-160,2,3,137*7F
$GPRMC,174841.00,A,4506.29416,N,07537.42511,W,0.345,,041020,,,D*67
$PGRMZ,92,f,3*20
$GPGGA,174841.00,4506.29416,N,07537.42511,W,2,12,0.73,87.7,M,-34.1,M,,0000*5C
$GPGSA,A,3,15,18,13,20,46,23,24,29,05,10,27,30,1.26,0.73,1.03*00
$PFLAA,3,-129,-47,3,1,C02487!FLR_C02487,0,,0,0.1,1*46
$PFLAA,2,-263,-495,-1,1,C03745!FLR_C03745,0,,0,,1*71
$PFLAU,2,1,2,1,3,-160,2,3,137*7F
$GPRMC,174842.00,A,4506.29410,N,07537.42510,W,0.113,,041020,,,D*62
$PGRMZ,92,f,3*20
$GPGGA,174842.00,4506.29410,N,07537.42510,W,2,12,0.73,87.7,M,-34.1,M,,0000*58
$GPGSA,A,3,15,18,20,46,23,24,29,05,10,27,30,51,1.26,0.73,1.03*06
$PFLAA,3,-129,-44,3,1,C02487!FLR_C02487,90,,0,0.1,1*7C
$PFLAA,2,-263,-495,-1,1,C03745!FLR_C03745,0,,0,,1*71
$PFLAU,2,1,2,1,3,-161,2,3,136*7F
$GPRMC,174843.00,A,4506.29408,N,07537.42523,W,0.448,,041020,,,D*61
$PGRMZ,92,f,3*20
$GPGGA,174843.00,4506.29408,N,07537.42523,W,2,12,0.70,87.5,M,-34.1,M,,0000*51
$GPGSA,A,3,15,18,13,20,46,23,24,29,05,10,27,30,1.21,0.70,0.99*06
$PFLAA,3,-129,-44,3,1,C02487!FLR_C02487,90,,0,-0.2,1*52
$PFLAA,2,-263,-495,-1,1,C03745!FLR_C03745,0,,0,,1*71
$PFLAU,2,1,2,1,3,-161,2,3,136*7F
$GPRMC,174844.00,A,4506.29397,N,07537.42533,W,0.544,,041020,,,D*6B
$PGRMZ,92,f,3*20
$GPGGA,174844.00,4506.29397,N,07537.42533,W,2,12,0.70,87.8,M,-34.1,M,,0000*5B
$GPGSA,A,3,15,18,13,20,46,23,24,29,05,10,27,30,1.21,0.70,0.99*06
$PFLAA,3,-127,-44,3,1,C02487!FLR_C02487,63,,0,0.1,1*7E
$PFLAA,2,-263,-495,-1,1,C03745!FLR_C03745,0,,0,,1*71
$PFLAU,2,1,2,1,3,-161,2,3,135*7C
$GPRMC,174845.00,A,4506.29385,N,07537.42540,W,0.361,,041020,,,D*6C
$PGRMZ,92,f,3*20
$GPGGA,174845.00,4506.29385,N,07537.42540,W,2,12,0.70,88.1,M,-34.1,M,,0000*5B
$GPGSA,A,3,15,18,13,20,46,23,24,29,05,10,27,30,1.21,0.70,0.99*06
$PFLAA,3,-125,-43,3,1,C02487!FLR_C02487,63,,0,-0.1,1*56
$PFLAA,2,-263,-495,-2,1,C03745!FLR_C03745,0,,0,,1*72
$PFLAU,2,1,2,1,3,-161,2,3,132*7B
$GPRMC,174846.00,A,4506.29379,N,07537.42550,W,0.164,,041020,,,D*6A
$PGRMZ,93,f,3*21
$GPGGA,174846.00,4506.29379,N,07537.42550,W,2,12,0.70,88.2,M,-34.1,M,,0000*59
$GPGSA,A,3,15,18,13,20,46,23,24,29,05,10,27,30,1.21,0.70,0.99*06
$PFLAA,3,-125,-43,2,1,C02487!FLR_C02487,116,,0,0.1,1*49
$PFLAA,2,-263,-495,-2,1,C03745!FLR_C03745,0,,0,,1*72
$PFLAU,2,1,2,1,3,-161,2,2,132*7A
$GPRMC,174847.00,A,4506.29379,N,07537.42557,W,0.145,,041020,,,D*6F
$PGRMZ,97,f,3*25
$GPGGA,174847.00,4506.29379,N,07537.42557,W,2,12,0.70,88.0,M,-34.1,M,,0000*5D
$GPGSA,A,3,15,18,13,20,46,23,24,29,05,10,27,30,1.21,0.70,0.99*06
$PFLAA,3,-125,-40,3,1,C02487!FLR_C02487,90,,0,-0.1,1*59
$PFLAA,2,-263,-495,-1,1,C03745!FLR_C03745,0,,0,,1*71
$PFLAU,2,1,2,1,3,-162,2,3,132*78
$GPRMC,174848.00,A,4506.29382,N,07537.42563,W,0.167,,041020,,,D*63
$PGRMZ,93,f,3*21
$GPGGA,174848.00,4506.29382,N,07537.42563,W,2,12,0.70,87.7,M,-34.1,M,,0000*59
$GPGSA,A,3,15,18,13,20,46,23,24,29,05,10,27,30,1.21,0.70,0.99*06
$PFLAA,3,-125,-40,3,1,C02487!FLR_C02487,71,,0,0.1,1*7B
$PFLAA,2,-263,-495,-1,1,C03745!FLR_C03745,0,,0,,1*71
$PFLAU,2,1,2,1,3,-162,2,3,131*7B
$GPRMC,174849.00,A,4506.29366,N,07537.42568,W,1.417,260.20,041020,,,D*78
$PGRMZ,94,f,3*26
$GPGGA,174849.00,4506.29366,N,07537.42568,W,2,12,0.70,88.0,M,-34.1,M,,0000*51
$GPGSA,A,3,15,18,13,20,46,23,24,29,05,10,27,30,1.21,0.70,0.99*06
$PFLAA,3,-123,-37,3,1,C02487!FLR_C02487,56,,0,0.2,1*7B
$PFLAA,2,-263,-495,-1,1,C03745!FLR_C03745,0,,0,,1*71
$PFLAU,2,1,2,1,3,-163,2,3,129*73
$GPRMC,174850.00,A,4506.29353,N,07537.42570,W,0.104,,041020,,,D*61
$PGRMZ,94,f,3*26
$GPGGA,174850.00,4506.29353,N,07537.42570,W,2,12,0.70,88.3,M,-34.1,M,,0000*55
$GPGSA,A,3,15,18,13,20,46,23,24,29,05,10,27,30,1.21,0.70,0.99*06
$PFLAA,3,-123,-37,2,1,C02487!FLR_C02487,71,,0,-0.1,1*51
$PFLAA,2,-262,-494,-2,1,C03745!FLR_C03745,0,,0,,1*72
$PFLAU,2,1,2,1,3,-163,2,2,129*72
$GPRMC,174851.00,A,4506.29356,N,07537.42570,W,0.188,,041020,,,D*61
$PGRMZ,93,f,3*21
$GPGGA,174851.00,4506.29356,N,07537.42570,W,2,12,0.70,88.2,M,-34.1,M,,0000*50
$GPGSA,A,3,15,18,13,20,46,23,24,29,05,10,27,30,1.21,0.70,0.99*06
$PFLAA,3,-122,-37,2,1,C02487!FLR_C02487,18,,0,-0.2,1*5C
$PFLAA,2,-262,-494,-2,1,C03745!FLR_C03745,0,,0,,1*72
$PFLAU,2,1,2,1,3,-163,2,2,127*7C
$GPRMC,174852.00,A,4506.29362,N,07537.42566,W,0.220,,041020,,,D*63
$PGRMZ,92,f,3*20
$GPGGA,174852.00,4506.29362,N,07537.42566,W,2,12,0.70,88.1,M,-34.1,M,,0000*50
$GPGSA,A,3,15,18,13,20,46,23,24,29,05,10,27,30,1.21,0.70,0.99*06
$PFLAA,3,-120,-36,3,1,C02487!FLR_C02487,18,,0,-0.1,1*5D
$PFLAA,2,-262,-494,-2,1,C03745!FLR_C03745,0,,0,,1*72
$PFLAU,2,1,2,1,3,-163,2,3,126*7C
$GPRMC,174853.00,A,4506.29367,N,07537.42562,W,0.285,,041020,,,D*6C
$GPGGA,174853.00,4506.29367,N,07537.42562,W,2,12,0.70,87.8,M,-34.1,M,,0000*56
$GPGSA,A,3,15,18,13,20,46,23,24,29,05,10,27,30,1.21,0.70,0.99*06
$PGRMZ,90,f,3*22
$PFLAA,3,-121,-34,3,1,C02487!FLR_C02487,33,,0,0.1,1*7A
$PFLAA,2,-262,-494,-1,1,C03745!FLR_C03745,0,,0,,1*71
$PFLAU,2,1,2,1,3,-164,2,3,125*78
$GPRMC,174854.00,A,4506.29363,N,07537.42558,W,0.141,,041020,,,D*6D
$GPGGA,174854.00,4506.29363,N,07537.42558,W,2,12,0.70,87.7,M,-34.1,M,,0000*53
$GPGSA,A,3,15,18,13,20,46,23,24,29,05,10,27,30,1.21,0.70,0.99*06
$PGRMZ,92,f,3*20
$PFLAA,3,-119,-34,3,1,C02487!FLR_C02487,45,,0,0.1,1*70
$PFLAA,2,-263,-494,-1,1,C03745!FLR_C03745,0,,0,,1*70
$PFLAU,2,1,2,1,3,-164,2,3,124*79
$GPRMC,174855.00,A,4506.29365,N,07537.42555,W,0.008,,041020,,,D*6B
$PGRMZ,93,f,3*21
$GPGGA,174855.00,4506.29365,N,07537.42555,W,2,12,0.70,87.4,M,-34.1,M,,0000*5A
$GPGSA,A,3,15,18,13,20,46,23,24,29,05,10,27,30,1.21,0.70,0.99*06
$PFLAA,3,-118,-33,3,1,C02487!FLR_C02487,26,,1,-0.1,1*5F
$PFLAA,2,-263,-494,-1,1,C03745!FLR_C03745,0,,0,,1*70
$PFLAU,2,1,2,1,3,-164,2,3,123*7E
$GPRMC,174856.00,A,4506.29362,N,07537.42546,W,0.145,,041020,,,D*65
$GPGGA,174856.00,4506.29362,N,07537.42546,W,2,12,0.73,87.2,M,-34.1,M,,0000*59
$GPGSA,A,3,15,18,13,20,46,23,24,29,05,10,27,30,1.26,0.73,1.03*00
$PGRMZ,92,f,3*20
$PFLAA,3,-118,-33,3,1,C02487!FLR_C02487,45,,1,0.1,1*77
$PFLAA,2,-263,-494,-1,1,C03745!FLR_C03745,0,,0,,1*70
$PFLAU,2,1,2,1,3,-164,2,3,122*7F
$GPRMC,174857.00,A,4506.29354,N,07537.42536,W,0.131,,041020,,,D*65
$GPGGA,174857.00,4506.29354,N,07537.42536,W,2,12,0.73,87.0,M,-34.1,M,,0000*58
$GPGSA,A,3,15,18,13,20,46,23,24,29,05,10,27,30,1.26,0.73,1.03*00
$PGRMZ,92,f,3*20
$GPRMC,174858.00,A,4506.29344,N,07537.42527,W,0.416,,041020,,,D*6B
$PFLAA,3,-116,-31,4,1,C02487!FLR_C02487,53,,1,0.1,1*7B
$PFLAA,2,-263,-494,0,1,C03745!FLR_C03745,0,,0,,1*5C
$PFLAU,2,1,2,1,3,-165,2,4,120*7B
$GPGGA,174858.00,4506.29344,N,07537.42527,W,2,12,0.73,86.5,M,-34.1,M,,0000*52
$GPGSA,A,3,15,18,13,20,46,23,24,29,05,10,27,30,1.26,0.73,1.03*00
$PGRMZ,93,f,3*21
$GPRMC,174859.00,A,4506.29334,N,07537.42521,W,0.167,,041020,,,D*68
$PFLAA,3,-114,-30,4,1,C02487!FLR_C02487,45,,1,0.1,1*7F
$PFLAA,2,-263,-494,0,1,C03745!FLR_C03745,0,,0,,1*5C
$PFLAU,2,1,2,1,3,-165,2,4,119*71
$GPGGA,174859.00,4506.29334,N,07537.42521,W,2,12,0.70,86.2,M,-34.1,M,,0000*56
$GPGSA,A,3,15,18,13,20,46,23,24,29,05,10,27,30,1.21,0.70,0.99*06
$PGRMZ,96,f,3*24
$GPRMC,174900.00,A,4506.29330,N,07537.42520,W,0.203,,041020,,,D*61
$PFLAA,3,-113,-30,4,1,C02487!FLR_C02487,53,,1,-0.2,1*51
$PFLAU,1,1,2,1,3,-165,2,4,117*7C
$GPGGA,174900.00,4506.29330,N,07537.42520,W,2,12,0.73,85.8,M,-34.1,M,,0000*54
