$GPGGA,195946.00,4515.85121,N,07549.02881,W,1,09,1.07,106.9,M,-34.3,M,,*66
$GPGSA,A,3,23,20,10,24,18,32,15,21,27,,,,1.72,1.07,1.35*09
$PFLAU,0,1,2,1,0,0,2,0,2147483647*68
$PGRMZ,129,f,3*11
$GPRMC,195947.00,A,4515.85139,N,07549.02865,W,0.204,,031020,,,A*66
$GPGGA,195947.00,4515.85139,N,07549.02865,W,1,09,1.07,106.3,M,-34.3,M,,*6E
$GPGSA,A,3,23,20,10,24,18,32,15,21,27,,,,1.72,1.07,1.35*09
$PFLAU,0,1,2,1,0,0,2,0,2147483647*68
$PGRMZ,133,f,3*1A
$GPRMC,195948.00,A,4515.85151,N,07549.02839,W,0.389,,031020,,,A*6A
$GPGGA,195948.00,4515.85151,N,07549.02839,W,1,09,1.07,105.6,M,-34.3,M,,*60
$GPGSA,A,3,23,20,10,24,18,32,15,21,27,,,,1.72,1.07,1.34*08
$PFLAU,0,1,2,1,0,0,2,0,2147483647*68
$PGRMZ,131,f,3*18
$GPRMC,195949.00,A,4515.85157,N,07549.02816,W,0.195,,031020,,,A*6F
$GPGGA,195949.00,4515.85157,N,07549.02816,W,1,09,1.07,105.1,M,-34.3,M,,*6D
$GPGSA,A,3,23,20,10,24,18,32,15,21,27,,,,1.72,1.07,1.34*08
$PFLAU,0,1,2,1,0,0,2,0,2147483647*68
$PGRMZ,134,f,3*1D
$GPRMC,195950.00,A,4515.85156,N,07549.02808,W,0.238,,031020,,,A*6D
$GPGGA,195950.00,4515.85156,N,07549.02808,W,1,09,1.07,104.8,M,-34.3,M,,*63
$GPGSA,A,3,23,20,10,24,18,32,15,21,27,,,,1.72,1.07,1.34*08
$PFLAU,0,1,2,1,0,0,2,0,2147483647*68
$PGRMZ,129,f,3*11
$GPRMC,195951.00,A,4515.85161,N,07549.02798,W,0.786,,031020,,,A*6E
$GPGGA,195951.00,4515.85161,N,07549.02798,W,1,09,1.07,104.7,M,-34.3,M,,*6F
$GPGSA,A,3,23,20,10,24,18,32,15,21,27,,,,1.72,1.07,1.34*08
$PFLAU,0,1,2,1,0,0,2,0,2147483647*68
$PGRMZ,131,f,3*18
$GPRMC,195952.00,A,4515.85175,N,07549.02782,W,0.537,,031020,,,A*6B
$GPGGA,195952.00,4515.85175,N,07549.02782,W,1,09,1.07,104.5,M,-34.3,M,,*60
$GPGSA,A,3,23,20,10,24,18,32,15,21,27,,,,1.72,1.07,1.34*08
$PFLAU,0,1,2,1,0,0,2,0,2147483647*68
$PGRMZ,131,f,3*18
$GPRMC,195953.00,A,4515.85187,N,07549.02782,W,0.425,,031020,,,A*65
$GPGGA,195953.00,4515.85187,N,07549.02782,W,1,09,1.07,104.5,M,-34.3,M,,*6C
$GPGSA,A,3,23,20,10,24,18,32,15,21,27,,,,1.72,1.07,1.34*08
$PFLAU,0,1,2,1,0,0,2,0,2147483647*68
$PGRMZ,129,f,3*11
$GPRMC,195954.00,A,4515.85193,N,07549.02792,W,0.313,,031020,,,A*64
$GPGGA,195954.00,4515.85193,N,07549.02792,W,1,09,1.10,104.9,M,-34.3,M,,*65
$GPGSA,A,3,23,20,10,24,18,32,15,21,27,,,,1.74,1.10,1.35*09
$PFLAU,0,1,2,1,0,0,2,0,2147483647*68
$PGRMZ,131,f,3*18
$GPRMC,195955.00,A,4515.85201,N,07549.02801,W,0.161,,031020,,,A*6F
$GPGGA,195955.00,4515.85201,N,07549.02801,W,1,09,1.07,105.2,M,-34.3,M,,*65
$GPGSA,A,3,23,20,10,24,18,32,15,21,27,,,,1.72,1.07,1.34*08
$PFLAU,0,1,2,1,0,0,2,0,2147483647*68
$PGRMZ,130,f,3*19
$GPRMC,195956.00,A,4515.85205,N,07549.02790,W,0.624,,031020,,,A*69
$GPGGA,195956.00,4515.85205,N,07549.02790,W,1,09,1.07,105.0,M,-34.3,M,,*67
$GPGSA,A,3,23,20,10,24,18,32,15,21,27,,,,1.72,1.07,1.34*08
$PFLAU,0,1,2,1,0,0,2,0,2147483647*68
$PGRMZ,131,f,3*18
$GPRMC,195957.00,A,4515.85186,N,07549.02791,W,1.129,,031020,,,A*6A
$GPGGA,195957.00,4515.85186,N,07549.02791,W,1,09,1.07,105.2,M,-34.3,M,,*6D
$GPGSA,A,3,23,20,10,24,18,32,15,21,27,,,,1.72,1.07,1.34*08
$PFLAU,0,1,2,1,0,0,2,0,2147483647*68
$PGRMZ,128,f,3*10
$GPRMC,195958.00,A,4515.85172,N,07549.02798,W,0.363,,031020,,,A*6A
$GPGGA,195958.00,4515.85172,N,07549.02798,W,1,09,1.07,105.5,M,-34.3,M,,*67
$GPGSA,A,3,23,20,10,24,18,32,15,21,27,,,,1.72,1.07,1.34*08
$PFLAU,0,1,2,1,0,0,2,0,2147483647*68
$PGRMZ,134,f,3*1D
$GPRMC,195959.00,A,4515.85182,N,07549.02782,W,0.533,,031020,,,A*6C
$GPGGA,195959.00,4515.85182,N,07549.02782,W,1,09,1.07,105.2,M,-34.3,M,,*65
$GPGSA,A,3,23,20,10,24,18,32,15,21,27,,,,1.72,1.07,1.34*08
$PFLAU,0,1,2,1,0,0,2,0,2147483647*68
$PGRMZ,134,f,3*1D
$GPRMC,200000.00,A,4515.85190,N,07549.02779,W,0.820,,031020,,,A*6E
$GPGGA,200000.00,4515.85190,N,07549.02779,W,1,09,1.07,105.1,M,-34.3,M,,*6B
$GPGSA,A,3,23,20,10,24,18,32,15,21,27,,,,1.72,1.07,1.34*08
$PFLAU,0,1,2,1,0,0,2,0,2147483647*68
$PGRMZ,136,f,3*1F
$GPRMC,200001.00,A,4515.85194,N,07549.02788,W,0.103,,031020,,,A*6D
$GPGGA,200001.00,4515.85194,N,07549.02788,W,1,09,1.07,105.3,M,-34.3,M,,*62
$GPGSA,A,3,23,20,10,24,18,32,15,21,27,,,,1.72,1.07,1.34*08
$PFLAU,0,1,2,1,0,0,2,0,2147483647*68
$PGRMZ,136,f,3*1F
$GPRMC,200002.00,A,4515.85194,N,07549.02791,W,0.251,,031020,,,A*62
$GPGGA,200002.00,4515.85194,N,07549.02791,W,1,09,1.07,105.3,M,-34.3,M,,*69
$GPGSA,A,3,23,20,10,24,18,32,15,21,27,,,,1.72,1.07,1.34*08
$PFLAU,0,1,2,1,0,0,2,0,2147483647*68
$PGRMZ,135,f,3*1C
$GPRMC,200003.00,A,4515.85195,N,07549.02786,W,0.029,,031020,,,A*69
$GPGGA,200003.00,4515.85195,N,07549.02786,W,1,09,1.07,105.3,M,-34.3,M,,*6F
$GPGSA,A,3,23,20,10,24,18,32,15,21,27,,,,1.72,1.07,1.34*08
$PFLAU,0,1,2,1,0,0,2,0,2147483647*68
$PGRMZ,135,f,3*1C
$GPRMC,200004.00,A,4515.85200,N,07549.02782,W,0.290,,031020,,,A*65
$GPGGA,200004.00,4515.85200,N,07549.02782,W,1,09,1.07,105.2,M,-34.3,M,,*62
$GPGSA,A,3,23,20,10,24,18,32,15,21,27,,,,1.72,1.07,1.34*08
$PFLAU,0,1,2,1,0,0,2,0,2147483647*68
$PGRMZ,137,f,3*1E
$GPRMC,200005.00,A,4515.85215,N,07549.02768,W,0.676,,031020,,,A*68
$GPGGA,200005.00,4515.85215,N,07549.02768,W,1,09,1.07,104.9,M,-34.3,M,,*69
$GPGSA,A,3,23,20,10,24,18,32,15,21,27,,,,1.72,1.07,1.34*08
$PFLAU,0,1,2,1,0,0,2,0,2147483647*68
$PGRMZ,136,f,3*1F
$GPRMC,200006.00,A,4515.85225,N,07549.02760,W,0.165,,031020,,,A*65
$GPGGA,200006.00,4515.85225,N,07549.02760,W,1,09,1.07,104.9,M,-34.3,M,,*61
$GPGSA,A,3,23,20,10,24,18,32,15,21,27,,,,1.72,1.07,1.34*08
$PFLAU,0,1,2,1,0,0,2,0,2147483647*68
$PGRMZ,135,f,3*1C
$GPRMC,200007.00,A,4515.85230,N,07549.02742,W,0.623,,031020,,,A*65
$GPGGA,200007.00,4515.85230,N,07549.02742,W,1,09,1.07,104.8,M,-34.3,M,,*65
$GPGSA,A,3,23,20,10,24,18,32,15,21,27,,,,1.72,1.07,1.34*08
$PFLAU,0,1,2,1,0,0,2,0,2147483647*68
$PGRMZ,135,f,3*1C
$GPRMC,200008.00,A,4515.85235,N,07549.02733,W,0.329,,031020,,,A*66
$GPGGA,200008.00,4515.85235,N,07549.02733,W,1,09,1.07,104.8,M,-34.3,M,,*69
$GPGSA,A,3,23,20,10,24,18,32,15,21,27,,,,1.72,1.07,1.34*08
$PFLAU,0,1,2,1,0,0,2,0,2147483647*68
$PGRMZ,136,f,3*1F
$GPRMC,200009.00,A,4515.85238,N,07549.02734,W,0.282,,031020,,,A*6D
$GPGGA,200009.00,4515.85238,N,07549.02734,W,1,09,1.07,105.2,M,-34.3,M,,*69
$GPGSA,A,3,23,20,10,24,18,32,15,21,27,,,,1.72,1.07,1.34*08
$PFLAU,0,1,2,1,0,0,2,0,2147483647*68
$PGRMZ,137,f,3*1E
$GPRMC,200010.00,A,4515.85236,N,07549.02739,W,0.233,,031020,,,A*6C
$GPGGA,200010.00,4515.85236,N,07549.02739,W,1,09,1.07,105.6,M,-34.3,M,,*66
$GPGSA,A,3,23,20,10,24,18,32,15,21,27,,,,1.72,1.07,1.34*08
$PFLAU,0,1,2,1,0,0,2,0,2147483647*68
$PGRMZ,137,f,3*1E
$GPRMC,200011.00,A,4515.85230,N,07549.02739,W,0.511,,031020,,,A*6C
$GPGGA,200011.00,4515.85230,N,07549.02739,W,1,09,1.08,105.6,M,-34.3,M,,*6E
$GPGSA,A,3,23,20,10,24,18,32,15,21,27,,,,1.83,1.08,1.48*02
$PFLAU,0,1,2,1,0,0,2,0,2147483647*68
$PGRMZ,136,f,3*1F
$GPRMC,200012.00,A,4515.85227,N,07549.02737,W,0.382,,031020,,,A*6B
$GPGGA,200012.00,4515.85227,N,07549.02737,W,1,09,1.07,105.7,M,-34.3,M,,*6B
$GPGSA,A,3,23,20,10,24,18,32,15,21,27,,,,1.72,1.07,1.34*08
$PFLAU,0,1,2,1,0,0,2,0,2147483647*68
$PGRMZ,136,f,3*1F
$GPRMC,200013.00,A,4515.85217,N,07549.02748,W,0.447,,031020,,,A*6F
$GPGGA,200013.00,4515.85217,N,07549.02748,W,1,09,1.10,106.1,M,-34.3,M,,*62
$GPGSA,A,3,23,20,10,24,18,32,15,21,27,,,,1.74,1.10,1.35*09
$PFLAU,0,1,2,1,0,0,2,0,2147483647*68
$PGRMZ,133,f,3*1A
$GPRMC,200014.00,A,4515.85206,N,07549.02758,W,0.226,,031020,,,A*68
$GPGGA,200014.00,4515.85206,N,07549.02758,W,1,09,1.07,106.4,M,-34.3,M,,*67
$GPGSA,A,3,23,20,10,24,18,32,15,21,27,,,,1.72,1.07,1.34*08
$PFLAU,0,1,2,1,0,0,2,0,2147483647*68
$PGRMZ,135,f,3*1C
$GPRMC,200015.00,A,4515.85199,N,07549.02762,W,0.580,,031020,,,A*6E
$GPGGA,200015.00,4515.85199,N,07549.02762,W,1,09,1.07,106.5,M,-34.3,M,,*6B
$GPGSA,A,3,23,20,10,24,18,32,15,21,27,,,,1.72,1.07,1.34*08
$PFLAU,0,1,2,1,0,0,2,0,2147483647*68
$PGRMZ,135,f,3*1C
$GPRMC,200016.00,A,4515.85200,N,07549.02761,W,0.809,,031020,,,A*61
$GPGGA,200016.00,4515.85200,N,07549.02761,W,1,09,1.07,106.7,M,-34.3,M,,*6A
$GPGSA,A,3,23,20,10,24,18,32,15,21,27,,,,1.72,1.07,1.34*08
$PFLAU,0,1,2,1,0,0,2,0,2147483647*68
$PGRMZ,135,f,3*1C
$GPRMC,200017.00,A,4515.85197,N,07549.02775,W,0.303,,031020,,,A*69
$GPGGA,200017.00,4515.85197,N,07549.02775,W,1,09,1.07,107.0,M,-34.3,M,,*65
$GPGSA,A,3,23,20,10,24,18,32,15,21,27,,,,1.72,1.07,1.34*08
$PFLAU,0,1,2,1,0,0,2,0,2147483647*68
$PGRMZ,134,f,3*1D
$GPRMC,200018.00,A,4515.85189,N,07549.02808,W,0.234,,031020,,,A*69
$GPGGA,200018.00,4515.85189,N,07549.02808,W,1,09,1.07,107.6,M,-34.3,M,,*66
$GPGSA,A,3,23,20,10,24,18,32,15,21,27,,,,1.72,1.07,1.34*08
$PFLAU,1,1,2,1,0,0,2,0,2147483647*69
$PGRMZ,134,f,3*1D
$GPRMC,200019.00,A,4515.85175,N,07549.02855,W,0.579,,031020,,,A*6D
$GPGGA,200019.00,4515.85175,N,07549.02855,W,1,09,1.07,108.4,M,-34.3,M,,*61
$GPGSA,A,3,23,20,10,24,18,32,15,21,27,,,,1.72,1.07,1.34*08
$PFLAU,1,1,2,1,0,0,2,0,2147483647*69
$PGRMZ,134,f,3*1D
$GPRMC,200020.00,A,4515.85166,N,07549.02880,W,0.912,,031020,,,A*6C
$GPGGA,200020.00,4515.85166,N,07549.02880,W,1,09,1.07,108.8,M,-34.3,M,,*6D
$GPGSA,A,3,23,20,10,24,18,32,15,21,27,,,,1.72,1.07,1.34*08
$PFLAU,1,1,2,1,0,0,2,0,2147483647*69
$PGRMZ,133,f,3*1A
$GPRMC,200021.00,A,4515.85169,N,07549.02888,W,0.682,,031020,,,A*6C
$GPGGA,200021.00,4515.85169,N,07549.02888,W,1,09,1.07,108.8,M,-34.3,M,,*6B
$GPGSA,A,3,23,20,10,24,18,32,15,21,27,,,,1.72,1.07,1.34*08
$PFLAU,1,1,2,1,0,0,2,0,2147483647*69
$PGRMZ,131,f,3*18
$GPRMC,200022.00,A,4515.85161,N,07549.02907,W,0.322,,031020,,,A*6E
$GPGGA,200022.00,4515.85161,N,07549.02907,W,1,09,1.60,109.2,M,-34.3,M,,*6C
$GPGSA,A,3,23,20,10,24,18,32,15,21,27,,,,2.66,1.60,2.12*08
$PFLAU,1,1,2,1,0,0,2,0,2147483647*69
$PGRMZ,135,f,3*1C
$GPRMC,200023.00,A,4515.85144,N,07549.02945,W,0.525,,031020,,,A*6F
$GPGGA,200023.00,4515.85144,N,07549.02945,W,1,09,1.60,109.8,M,-34.3,M,,*66
$GPGSA,A,3,23,20,10,24,18,32,15,21,27,,,,2.65,1.60,2.12*0B
$PFLAU,1,1,2,1,0,0,2,0,2147483647*69
$PGRMZ,133,f,3*1A
$GPRMC,200024.00,A,4515.85124,N,07549.02997,W,0.661,,031020,,,A*62
$GPGGA,200024.00,4515.85124,N,07549.02997,W,1,09,1.60,110.6,M,-34.3,M,,*6E
$GPGSA,A,3,23,20,10,24,18,32,15,21,27,,,,2.65,1.60,2.12*0B
$PFLAU,0,1,2,1,0,0,2,0,2147483647*68
$PGRMZ,134,f,3*1D
$GPRMC,200025.00,A,4515.85111,N,07549.03043,W,0.193,,031020,,,A*6E
$GPGGA,200025.00,4515.85111,N,07549.03043,W,1,09,1.60,111.2,M,-34.3,M,,*6D
$GPGSA,A,3,23,20,10,24,18,32,15,21,27,,,,2.65,1.60,2.12*0B
$PFLAU,0,1,2,1,0,0,2,0,2147483647*68
$PGRMZ,131,f,3*18
$GPRMC,200026.00,A,4515.85105,N,07549.03072,W,0.051,,031020,,,A*65
$GPGGA,200026.00,4515.85105,N,07549.03072,W,1,08,1.60,111.5,M,-34.3,M,,*6F
$GPGSA,A,3,23,20,10,24,18,32,21,27,,,,,2.65,1.60,2.12*0F
$PFLAU,1,1,2,1,0,0,2,0,2147483647*69
$PGRMZ,133,f,3*1A
$GPRMC,200027.00,A,4515.85105,N,07549.03089,W,0.371,,031020,,,A*61
$GPGGA,200027.00,4515.85105,N,07549.03089,W,1,08,1.60,111.6,M,-34.3,M,,*69
$GPGSA,A,3,23,20,10,24,18,32,21,27,,,,,2.65,1.60,2.12*0F
$PFLAU,1,1,2,1,0,0,2,0,2147483647*69
$PGRMZ,134,f,3*1D
$GPRMC,200028.00,A,4515.85105,N,07549.03104,W,0.145,,031020,,,A*6F
$GPGGA,200028.00,4515.85105,N,07549.03104,W,1,08,1.60,111.7,M,-34.3,M,,*63
$GPGSA,A,3,23,20,10,24,18,32,21,27,,,,,2.65,1.60,2.12*0F
$PFLAU,1,1,2,1,0,0,2,0,2147483647*69
$PGRMZ,133,f,3*1A
$GPRMC,200029.00,A,4515.85097,N,07549.03116,W,0.268,,031020,,,A*6B
$GPGGA,200029.00,4515.85097,N,07549.03116,W,1,08,1.60,111.8,M,-34.3,M,,*64
$GPGSA,A,3,23,20,10,24,18,32,21,27,,,,,2.65,1.60,2.12*0F
$PFLAU,1,1,2,1,0,0,2,0,2147483647*69
$PGRMZ,133,f,3*1A
$GPRMC,200030.00,A,4515.85087,N,07549.03136,W,0.840,,031020,,,A*60
$GPGGA,200030.00,4515.85087,N,07549.03136,W,1,08,1.60,111.9,M,-34.3,M,,*6E
$GPGSA,A,3,23,20,10,24,18,32,21,27,,,,,2.65,1.60,2.12*0F
$PFLAU,1,1,2,1,0,0,2,0,2147483647*69
$PGRMZ,131,f,3*18
$GPRMC,200031.00,A,4515.85091,N,07549.03150,W,0.624,,031020,,,A*6A
$GPGGA,200031.00,4515.85091,N,07549.03150,W,1,08,1.60,112.0,M,-34.3,M,,*62
$GPGSA,A,3,23,20,10,24,18,32,21,27,,,,,2.65,1.60,2.12*0F
$PFLAU,0,1,2,1,0,0,2,0,2147483647*68
$PGRMZ,133,f,3*1A
$GPRMC,200032.00,A,4515.85090,N,07549.03154,W,0.366,,031020,,,A*6F
$GPGGA,200032.00,4515.85090,N,07549.03154,W,1,08,1.60,112.0,M,-34.3,M,,*64
$GPGSA,A,3,23,20,10,24,18,32,21,27,,,,,2.65,1.60,2.12*0F
$PFLAU,0,1,2,1,0,0,2,0,2147483647*68
$PGRMZ,133,f,3*1A
$GPRMC,200033.00,A,4515.85087,N,07549.03158,W,0.165,,031020,,,A*65
$GPGGA,200033.00,4515.85087,N,07549.03158,W,1,09,1.60,111.8,M,-34.3,M,,*65
$GPGSA,A,3,23,20,10,24,18,32,15,21,27,,,,2.65,1.60,2.12*0B
$PFLAU,0,1,2,1,0,0,2,0,2147483647*68
$PGRMZ,133,f,3*1A
$GPRMC,200034.00,A,4515.85085,N,07549.03168,W,0.281,,031020,,,A*6A
$GPGGA,200034.00,4515.85085,N,07549.03168,W,1,09,1.60,111.7,M,-34.3,M,,*6C
$GPGSA,A,3,23,20,10,24,18,32,15,21,27,,,,2.65,1.60,2.12*0B
$PFLAU,0,1,2,1,0,0,2,0,2147483647*68
$PGRMZ,131,f,3*18
$GPRMC,200035.00,A,4515.85082,N,07549.03164,W,0.228,,031020,,,A*63
$GPGGA,200035.00,4515.85082,N,07549.03164,W,1,08,1.60,111.3,M,-34.3,M,,*63
$GPGSA,A,3,23,20,10,24,18,32,21,27,,,,,2.65,1.60,2.12*0F
$PFLAU,0,1,2,1,0,0,2,0,2147483647*68
$PGRMZ,130,f,3*19
$GPRMC,200036.00,A,4515.85081,N,07549.03158,W,0.191,,031020,,,A*6D
$GPGGA,200036.00,4515.85081,N,07549.03158,W,1,08,1.60,110.9,M,-34.3,M,,*67
$GPGSA,A,3,23,20,10,24,18,32,21,27,,,,,2.65,1.60,2.12*0F
$PFLAU,0,1,2,1,0,0,2,0,2147483647*68
$PGRMZ,136,f,3*1F
$GPRMC,200037.00,A,4515.85077,N,07549.03179,W,0.959,,031020,,,A*6A
$GPGGA,200037.00,4515.85077,N,07549.03179,W,1,08,1.60,111.1,M,-34.3,M,,*65
$GPGSA,A,3,23,20,10,24,18,32,21,27,,,,,2.65,1.60,2.12*0F
$PFLAU,0,1,2,1,0,0,2,0,2147483647*68
$PGRMZ,133,f,3*1A
$GPRMC,200038.00,A,4515.85070,N,07549.03203,W,0.553,,031020,,,A*6A
$GPGGA,200038.00,4515.85070,N,07549.03203,W,1,08,1.60,111.3,M,-34.3,M,,*61
$GPGSA,A,3,23,20,10,24,18,32,21,27,,,,,2.65,1.60,2.12*0F
$PFLAU,0,1,2,1,0,0,2,0,2147483647*68
$PGRMZ,133,f,3*1A
$GPRMC,200039.00,A,4515.85069,N,07549.03197,W,0.376,,031020,,,A*6C
$GPGGA,200039.00,4515.85069,N,07549.03197,W,1,08,1.60,111.2,M,-34.3,M,,*67
$GPGSA,A,3,23,20,10,24,18,32,21,27,,,,,2.65,1.60,2.12*0F
$PFLAU,0,1,2,1,0,0,2,0,2147483647*68
$PGRMZ,134,f,3*1D
$GPRMC,200040.00,A,4515.85071,N,07549.03180,W,0.136,,031020,,,A*6B
$GPGGA,200040.00,4515.85071,N,07549.03180,W,1,08,1.60,110.9,M,-34.3,M,,*6C
$GPGSA,A,3,23,20,10,24,18,32,21,27,,,,,2.65,1.60,2.12*0F
$PFLAU,0,1,2,1,0,0,2,0,2147483647*68
$PGRMZ,133,f,3*1A
$GPRMC,200041.00,A,4515.85082,N,07549.03166,W,0.341,,031020,,,A*6C
$GPGGA,200041.00,4515.85082,N,07549.03166,W,1,08,1.60,110.7,M,-34.3,M,,*67
$GPGSA,A,3,23,20,10,24,18,32,21,27,,,,,2.65,1.60,2.12*0F
$PFLAU,0,1,2,1,0,0,2,0,2147483647*68
$PGRMZ,134,f,3*1D
$GPRMC,200042.00,A,4515.85097,N,07549.03164,W,0.273,,031020,,,A*69
$GPGGA,200042.00,4515.85097,N,07549.03164,W,1,09,1.60,110.6,M,-34.3,M,,*62
$GPGSA,A,3,23,20,10,24,18,32,15,21,27,,,,2.65,1.60,2.12*0B
$PFLAU,0,1,2,1,0,0,2,0,2147483647*68
$PGRMZ,133,f,3*1A
$GPRMC,200043.00,A,4515.85108,N,07549.03165,W,0.223,,031020,,,A*6B
$GPGGA,200043.00,4515.85108,N,07549.03165,W,1,09,1.60,110.7,M,-34.3,M,,*64
$GPGSA,A,3,23,20,10,24,18,32,15,21,27,,,,2.65,1.60,2.12*0B
$PFLAU,0,1,2,1,0,0,2,0,2147483647*68
$PGRMZ,130,f,3*19
$GPRMC,200044.00,A,4515.85116,N,07549.03159,W,0.073,,031020,,,A*6B
$GPGGA,200044.00,4515.85116,N,07549.03159,W,1,09,1.60,110.5,M,-34.3,M,,*61
$GPGSA,A,3,23,20,10,24,18,32,15,21,27,,,,2.65,1.60,2.12*0B
$PFLAU,0,1,2,1,0,0,2,0,2147483647*68
$PGRMZ,133,f,3*1A
$GPRMC,200045.00,A,4515.85122,N,07549.03147,W,0.097,,031020,,,A*68
$GPGGA,200045.00,4515.85122,N,07549.03147,W,1,09,1.60,110.3,M,-34.3,M,,*6E
$GPGSA,A,3,23,20,10,24,18,32,15,21,27,,,,2.65,1.60,2.12*0B
$PFLAU,0,1,2,1,0,0,2,0,2147483647*68
$PGRMZ,134,f,3*1D
$GPRMC,200046.00,A,4515.85120,N,07549.03144,W,0.566,,031020,,,A*61
$GPGGA,200046.00,4515.85120,N,07549.03144,W,1,09,1.60,110.4,M,-34.3,M,,*6B
$GPGSA,A,3,23,20,10,24,18,32,15,21,27,,,,2.65,1.60,2.12*0B
$PFLAU,0,1,2,1,0,0,2,0,2147483647*68
$PGRMZ,133,f,3*1A
$GPRMC,200047.00,A,4515.85117,N,07549.03149,W,0.625,,031020,,,A*6D
$GPGGA,200047.00,4515.85117,N,07549.03149,W,1,09,1.60,110.6,M,-34.3,M,,*61
$GPGSA,A,3,23,20,10,24,18,32,15,21,27,,,,2.65,1.60,2.12*0B
$PFLAU,0,1,2,1,0,0,2,0,2147483647*68
$PGRMZ,133,f,3*1A
$GPRMC,200048.00,A,4515.85118,N,07549.03135,W,0.404,,031020,,,A*67
$GPGGA,200048.00,4515.85118,N,07549.03135,W,1,09,1.60,110.3,M,-34.3,M,,*6F
$GPGSA,A,3,23,20,10,24,18,32,15,21,27,,,,2.65,1.60,2.12*0B
$PFLAU,0,1,2,1,0,0,2,0,2147483647*68
$PGRMZ,133,f,3*1A
$GPRMC,200049.00,A,4515.85124,N,07549.03123,W,0.334,,031020,,,A*6A
$GPGGA,200049.00,4515.85124,N,07549.03123,W,1,09,1.60,110.2,M,-34.3,M,,*67
$GPGSA,A,3,23,20,10,24,18,32,15,21,27,,,,2.65,1.60,2.12*0B
$PFLAU,0,1,2,1,0,0,2,0,2147483647*68
$PGRMZ,134,f,3*1D
$GPRMC,200050.00,A,4515.85133,N,07549.03109,W,0.563,,031020,,,A*68
$GPGGA,200050.00,4515.85133,N,07549.03109,W,1,09,1.60,110.1,M,-34.3,M,,*62
$GPGSA,A,3,23,20,10,24,18,32,15,21,27,,,,2.65,1.60,2.11*08
$PFLAU,1,1,2,1,0,0,2,0,2147483647*69
$PGRMZ,130,f,3*19
$GPRMC,200051.00,A,4515.85140,N,07549.03083,W,0.330,,031020,,,A*6E
$GPGGA,200051.00,4515.85140,N,07549.03083,W,1,09,1.60,109.9,M,-34.3,M,,*64
$GPGSA,A,3,23,20,10,24,18,32,15,21,27,,,,2.65,1.60,2.11*08
$PFLAU,1,1,2,1,0,0,2,0,2147483647*69
$PGRMZ,133,f,3*1A
$GPRMC,200052.00,A,4515.85144,N,07549.03046,W,0.929,,031020,,,A*62
$GPGGA,200052.00,4515.85144,N,07549.03046,W,1,09,1.60,109.5,M,-34.3,M,,*66
$GPGSA,A,3,23,20,10,24,18,32,15,21,27,,,,2.65,1.60,2.11*08
$PFLAU,1,1,2,1,0,0,2,0,2147483647*69
$PGRMZ,131,f,3*18
$GPRMC,200053.00,A,4515.85146,N,07549.03017,W,0.333,,031020,,,A*64
$GPGGA,200053.00,4515.85146,N,07549.03017,W,1,09,1.60,109.0,M,-34.3,M,,*64
$GPGSA,A,3,23,20,10,24,18,32,15,21,27,,,,2.65,1.60,2.11*08
$PFLAU,1,1,2,1,0,0,2,0,2147483647*69
$PGRMZ,133,f,3*1A
$GPRMC,200054.00,A,4515.85145,N,07549.03021,W,0.629,,031020,,,A*6B
$GPGGA,200054.00,4515.85145,N,07549.03021,W,1,09,1.60,108.9,M,-34.3,M,,*6D
$GPGSA,A,3,23,20,10,24,18,32,15,21,27,,,,2.65,1.60,2.11*08
$PFLAU,1,1,2,1,0,0,2,0,2147483647*69
$PGRMZ,131,f,3*18
$GPRMC,200055.00,A,4515.85134,N,07549.03044,W,0.805,,031020,,,A*6F
$GPGGA,200055.00,4515.85134,N,07549.03044,W,1,09,1.60,109.3,M,-34.3,M,,*62
$GPGSA,A,3,23,20,10,24,18,32,15,21,27,,,,2.65,1.60,2.11*08
$PFLAU,1,1,2,1,0,0,2,0,2147483647*69
$PGRMZ,131,f,3*18
$GPRMC,200056.00,A,4515.85138,N,07549.03036,W,0.829,,031020,,,A*6B
$GPGGA,200056.00,4515.85138,N,07549.03036,W,1,09,1.60,109.3,M,-34.3,M,,*68
$GPGSA,A,3,23,20,10,24,18,32,15,21,27,,,,2.65,1.60,2.11*08
$PFLAU,1,1,2,1,0,0,2,0,2147483647*69
$PGRMZ,131,f,3*18
$GPRMC,200057.00,A,4515.85151,N,07549.03029,W,0.487,,031020,,,A*63
$GPGGA,200057.00,4515.85151,N,07549.03029,W,1,09,1.60,109.3,M,-34.3,M,,*68
$GPGSA,A,3,23,20,10,24,18,32,15,21,27,,,,2.65,1.60,2.11*08
$PFLAU,1,1,2,1,0,0,2,0,2147483647*69
$PGRMZ,133,f,3*1A
$GPRMC,200058.00,A,4515.85160,N,07549.03031,W,0.721,,031020,,,A*68
$GPGGA,200058.00,4515.85160,N,07549.03031,W,1,09,1.60,109.6,M,-34.3,M,,*69
$GPGSA,A,3,23,20,10,24,18,32,15,21,27,,,,2.65,1.60,2.11*08
$PFLAU,1,1,2,1,0,0,2,0,2147483647*69
$PGRMZ,133,f,3*1A
$GPRMC,200059.00,A,4515.85167,N,07549.03039,W,0.488,,031020,,,A*66
$GPGGA,200059.00,4515.85167,N,07549.03039,W,1,09,1.60,109.7,M,-34.3,M,,*66
$GPGSA,A,3,23,20,10,24,18,32,15,21,27,,,,2.65,1.60,2.11*08
$PFLAU,1,1,2,1,0,0,2,0,2147483647*69
$PGRMZ,133,f,3*1A
$GPRMC,200100.00,A,4515.85163,N,07549.03053,W,0.183,,031020,,,A*6D
$GPGGA,200100.00,4515.85163,N,07549.03053,W,1,09,1.60,109.9,M,-34.3,M,,*6D
$GPGSA,A,3,23,20,10,24,18,32,15,21,27,,,,2.65,1.60,2.11*08
$PFLAU,1,1,2,1,0,0,2,0,2147483647*69
$PGRMZ,134,f,3*1D
$GPRMC,200101.00,A,4515.85160,N,07549.03068,W,0.487,,031020,,,A*66
$GPGGA,200101.00,4515.85160,N,07549.03068,W,1,09,1.60,110.2,M,-34.3,M,,*64
$GPGSA,A,3,23,20,10,24,18,32,15,21,27,,,,2.65,1.60,2.11*08
$PFLAU,0,1,2,1,0,0,2,0,2147483647*68
$PGRMZ,131,f,3*18
$GPRMC,200102.00,A,4515.85156,N,07549.03085,W,0.276,,031020,,,A*6B
$GPGGA,200102.00,4515.85156,N,07549.03085,W,1,09,1.60,110.4,M,-34.3,M,,*67
$GPGSA,A,3,23,20,10,24,18,32,15,21,27,,,,2.65,1.60,2.11*08
$PFLAU,0,1,2,1,0,0,2,0,2147483647*68
$PGRMZ,131,f,3*18
$GPRMC,200103.00,A,4515.85149,N,07549.03088,W,0.107,,031020,,,A*6C
$GPGGA,200103.00,4515.85149,N,07549.03088,W,1,09,1.60,110.5,M,-34.3,M,,*64
$GPGSA,A,3,23,20,10,24,18,32,15,21,27,,,,2.65,1.60,2.11*08
$PFLAU,0,1,2,1,0,0,2,0,2147483647*68
$PGRMZ,131,f,3*18
$GPRMC,200104.00,A,4515.85136,N,07549.03099,W,0.603,,031020,,,A*60
$GPGGA,200104.00,4515.85136,N,07549.03099,W,1,09,1.60,110.8,M,-34.3,M,,*66
$GPGSA,A,3,23,20,10,24,18,32,15,21,27,,,,2.65,1.60,2.11*08
$PFLAU,0,1,2,1,0,0,2,0,2147483647*68
$PGRMZ,133,f,3*1A
$GPRMC,200105.00,A,4515.85128,N,07549.03112,W,0.191,,031020,,,A*60
$GPGGA,200105.00,4515.85128,N,07549.03112,W,1,09,1.60,111.3,M,-34.3,M,,*60
$GPGSA,A,3,23,20,10,24,18,32,15,21,27,,,,2.65,1.60,2.11*08
$PFLAU,0,1,2,1,0,0,2,0,2147483647*68
$PGRMZ,131,f,3*18
$GPRMC,200106.00,A,4515.85131,N,07549.03127,W,0.516,,031020,,,A*66
$GPGGA,200106.00,4515.85131,N,07549.03127,W,1,09,1.60,111.7,M,-34.3,M,,*69
$GPGSA,A,3,23,20,10,24,18,32,15,21,27,,,,2.65,1.60,2.11*08
$PFLAU,0,1,2,1,0,0,2,0,2147483647*68
$PGRMZ,131,f,3*18
$GPRMC,200107.00,A,4515.85147,N,07549.03114,W,0.464,,031020,,,A*62
$GPGGA,200107.00,4515.85147,N,07549.03114,W,1,09,1.60,111.7,M,-34.3,M,,*69
$GPGSA,A,3,23,20,10,24,18,32,15,21,27,,,,2.65,1.60,2.11*08
$PFLAU,0,1,2,1,0,0,2,0,2147483647*68
$PGRMZ,131,f,3*18
$GPRMC,200108.00,A,4515.85160,N,07549.03095,W,0.210,,031020,,,A*65
$GPGGA,200108.00,4515.85160,N,07549.03095,W,1,09,1.59,111.5,M,-34.3,M,,*63
$GPGSA,A,3,23,20,10,24,18,32,15,21,27,,,,2.65,1.59,2.11*02
$PFLAU,0,1,2,1,0,0,2,0,2147483647*68
$PGRMZ,130,f,3*19
$GPRMC,200109.00,A,4515.85163,N,07549.03080,W,0.460,,031020,,,A*62
$GPGGA,200109.00,4515.85163,N,07549.03080,W,1,09,1.59,111.4,M,-34.3,M,,*64
$GPGSA,A,3,23,20,10,24,18,32,15,21,27,,,,2.65,1.59,2.11*02
$PFLAU,0,1,2,1,0,0,2,0,2147483647*68
$PGRMZ,131,f,3*18
$GPRMC,200110.00,A,4515.85153,N,07549.03083,W,1.182,,031020,,,A*62
$GPGGA,200110.00,4515.85153,N,07549.03083,W,1,09,1.59,111.6,M,-34.3,M,,*6E
$GPGSA,A,3,23,20,10,24,18,32,15,21,27,,,,2.65,1.59,2.11*02
$PFLAU,0,1,2,1,0,0,2,0,2147483647*68
$PGRMZ,131,f,3*18
$GPRMC,200111.00,A,4515.85150,N,07549.03095,W,0.458,,031020,,,A*64
$GPGGA,200111.00,4515.85150,N,07549.03095,W,1,09,1.59,111.9,M,-34.3,M,,*64
$GPGSA,A,3,23,20,10,24,18,32,15,21,27,,,,2.65,1.59,2.11*02
$PFLAU,0,1,2,1,0,0,2,0,2147483647*68
$PGRMZ,131,f,3*18
$GPRMC,200112.00,A,4515.85154,N,07549.03088,W,0.256,,031020,,,A*67
$GPGGA,200112.00,4515.85154,N,07549.03088,W,1,09,1.59,111.8,M,-34.3,M,,*6E
$GPGSA,A,3,23,20,10,24,18,32,15,21,27,,,,2.65,1.59,2.11*02
$PFLAU,0,1,2,1,0,0,2,0,2147483647*68
$PGRMZ,131,f,3*18
$GPRMC,200113.00,A,4515.85140,N,07549.03069,W,0.980,,031020,,,A*6C
$GPGGA,200113.00,4515.85140,N,07549.03069,W,1,09,1.07,111.4,M,-34.3,M,,*62
$GPGSA,A,3,23,20,10,24,18,32,15,21,27,,,,1.71,1.07,1.33*0C
$PFLAU,0,1,2,1,0,0,2,0,2147483647*68
$PGRMZ,130,f,3*19
$GPRMC,200114.00,A,4515.85121,N,07549.03061,W,0.129,,031020,,,A*6F
$GPGGA,200114.00,4515.85121,N,07549.03061,W,1,09,1.07,111.4,M,-34.3,M,,*6A
$GPGSA,A,3,23,20,10,24,18,32,15,21,27,,,,1.71,1.07,1.33*0C
$PFLAU,0,1,2,1,0,0,2,0,2147483647*68
$PGRMZ,131,f,3*18
$GPRMC,200115.00,A,4515.85119,N,07549.03061,W,0.394,,031020,,,A*61
$GPGGA,200115.00,4515.85119,N,07549.03061,W,1,09,1.07,111.6,M,-34.3,M,,*62
$GPGSA,A,3,23,20,10,24,18,32,15,21,27,,,,1.71,1.07,1.33*0C
$PFLAU,0,1,2,1,0,0,2,0,2147483647*68
$PGRMZ,131,f,3*18
$GPRMC,200116.00,A,4515.85116,N,07549.03077,W,1.370,,031020,,,A*61
$GPGGA,200116.00,4515.85116,N,07549.03077,W,1,09,1.07,111.8,M,-34.3,M,,*67
$GPGSA,A,3,23,20,10,24,18,32,15,21,27,,,,1.71,1.07,1.33*0C
$PFLAU,0,1,2,1,0,0,2,0,2147483647*68
$PGRMZ,130,f,3*19
$GPRMC,200117.00,A,4515.85117,N,07549.03110,W,0.847,,031020,,,A*6F
$GPGGA,200117.00,4515.85117,N,07549.03110,W,1,09,1.07,112.3,M,-34.3,M,,*6F
$GPGSA,A,3,23,20,10,24,18,32,15,21,27,,,,1.71,1.07,1.33*0C
$PFLAU,0,1,2,1,0,0,2,0,2147483647*68
$PGRMZ,131,f,3*18
$GPRMC,200118.00,A,4515.85118,N,07549.03110,W,0.508,,031020,,,A*69
$GPGGA,200118.00,4515.85118,N,07549.03110,W,1,08,1.59,112.3,M,-34.3,M,,*65
$GPGSA,A,3,23,20,10,24,18,32,21,27,,,,,2.64,1.59,2.11*07
$PFLAU,0,1,2,1,0,0,2,0,2147483647*68
$PGRMZ,135,f,3*1C
$GPRMC,200119.00,A,4515.85117,N,07549.03084,W,0.356,,031020,,,A*66
$GPGGA,200119.00,4515.85117,N,07549.03084,W,1,09,1.59,111.8,M,-34.3,M,,*6E
$GPGSA,A,3,23,20,10,24,18,32,15,21,27,,,,2.64,1.59,2.11*03
$PFLAU,0,1,2,1,0,0,2,0,2147483647*68
$PGRMZ,131,f,3*18
$GPRMC,200120.00,A,4515.85119,N,07549.03039,W,0.260,,031020,,,A*60
$GPGGA,200120.00,4515.85119,N,07549.03039,W,1,09,1.59,110.7,M,-34.3,M,,*62
$GPGSA,A,3,23,20,10,24,18,32,15,21,27,,,,2.64,1.59,2.11*03
$PFLAU,0,1,2,1,0,0,2,0,2147483647*68
$PGRMZ,131,f,3*18
$GPRMC,200121.00,A,4515.85123,N,07549.03000,W,0.114,,031020,,,A*62
$GPGGA,200121.00,4515.85123,N,07549.03000,W,1,09,1.59,109.4,M,-34.3,M,,*6B
$GPGSA,A,3,23,20,10,24,18,32,15,21,27,,,,2.64,1.59,2.11*03
$PFLAU,1,1,2,1,0,0,2,0,2147483647*69
$PGRMZ,129,f,3*11
$GPRMC,200122.00,A,4515.85128,N,07549.02977,W,0.533,,031020,,,A*63
$GPGGA,200122.00,4515.85128,N,07549.02977,W,1,09,1.59,108.6,M,-34.3,M,,*68
$GPGSA,A,3,23,20,10,24,18,32,15,21,27,,,,2.64,1.59,2.11*03
$PFLAU,1,1,2,1,0,0,2,0,2147483647*69
$PGRMZ,131,f,3*18
$GPRMC,200123.00,A,4515.85134,N,07549.02968,W,0.248,,031020,,,A*6A
$GPGGA,200123.00,4515.85134,N,07549.02968,W,1,09,1.59,107.9,M,-34.3,M,,*6A
$GPGSA,A,3,23,20,10,24,18,32,15,21,27,,,,2.64,1.59,2.11*03
$PFLAU,1,1,2,1,0,0,2,0,2147483647*69
$PGRMZ,131,f,3*18
$GPRMC,200124.00,A,4515.85144,N,07549.02960,W,0.368,,031020,,,A*61
$GPGGA,200124.00,4515.85144,N,07549.02960,W,1,09,1.59,107.4,M,-34.3,M,,*6F
$GPGSA,A,3,23,20,10,24,18,32,15,21,27,,,,2.64,1.59,2.11*03
$PFLAU,1,1,2,1,0,0,2,0,2147483647*69
$PGRMZ,130,f,3*19
$GPRMC,200125.00,A,4515.85159,N,07549.02951,W,0.408,,031020,,,D*6A
$GPGGA,200125.00,4515.85159,N,07549.02951,W,2,09,1.59,107.0,M,-34.3,M,,0000*67
$GPGSA,A,3,23,20,10,24,18,32,15,21,27,,,,2.64,1.59,2.11*03
$PFLAU,1,1,2,1,0,0,2,0,2147483647*69
$PGRMZ,130,f,3*19
$GPRMC,200126.00,A,4515.85175,N,07549.02940,W,0.141,,031020,,,D*6F
$GPGGA,200126.00,4515.85175,N,07549.02940,W,2,09,1.59,106.8,M,-34.3,M,,0000*63
$GPGSA,A,3,23,20,10,24,18,32,15,21,27,,,,2.64,1.59,2.11*03
$PFLAU,1,1,2,1,0,0,2,0,2147483647*69
$PGRMZ,129,f,3*11
$GPRMC,200127.00,A,4515.85185,N,07549.02934,W,0.285,,031020,,,D*69
$GPGGA,200127.00,4515.85185,N,07549.02934,W,2,09,1.59,106.6,M,-34.3,M,,0000*60
$GPGSA,A,3,23,20,10,24,18,32,15,21,27,,,,2.64,1.59,2.11*03
$PFLAU,1,1,2,1,0,0,2,0,2147483647*69
$PGRMZ,130,f,3*19
$GPRMC,200128.00,A,4515.85190,N,07549.02930,W,0.549,,031020,,,D*61
$GPGGA,200128.00,4515.85190,N,07549.02930,W,2,09,1.59,106.2,M,-34.3,M,,0000*6B
$GPGSA,A,3,23,20,10,24,18,32,15,21,27,,,,2.64,1.59,2.11*03
$PFLAU,1,1,2,1,0,0,2,0,2147483647*69
$PGRMZ,130,f,3*19
$GPRMC,200129.00,A,4515.85186,N,07549.02940,W,0.695,,031020,,,D*62
$GPGGA,200129.00,4515.85186,N,07549.02940,W,2,09,1.59,106.0,M,-34.3,M,,0000*68
$GPGSA,A,3,23,20,10,24,18,32,15,21,27,,,,2.64,1.59,2.11*03
$PFLAU,1,1,2,1,0,0,2,0,2147483647*69
$PGRMZ,131,f,3*18
$GPRMC,200130.00,A,4515.85169,N,07549.02970,W,1.149,,031020,,,D*6F
$GPGGA,200130.00,4515.85169,N,07549.02970,W,2,08,1.59,106.2,M,-34.3,M,,0000*61
$GPGSA,A,3,23,20,10,24,18,32,21,27,,,,,2.64,1.59,2.11*07
$PFLAU,1,1,2,1,0,0,2,0,2147483647*69
$PGRMZ,128,f,3*10
$GPRMC,200131.00,A,4515.85160,N,07549.02989,W,0.209,,031020,,,D*67
$GPGGA,200131.00,4515.85160,N,07549.02989,W,2,08,1.59,106.2,M,-34.3,M,,0000*6F
$GPGSA,A,3,23,20,10,24,18,32,21,27,,,,,2.64,1.59,2.11*07
$PFLAU,1,1,2,1,0,0,2,0,2147483647*69
$PGRMZ,130,f,3*19
$GPRMC,200132.00,A,4515.85163,N,07549.02994,W,0.186,,031020,,,D*6F
$GPGGA,200132.00,4515.85163,N,07549.02994,W,2,08,1.59,106.0,M,-34.3,M,,0000*61
$GPGSA,A,3,23,20,10,24,18,32,21,27,,,,,2.64,1.59,2.11*07
$PFLAU,1,1,2,1,0,0,2,0,2147483647*69
$PGRMZ,129,f,3*11
$GPRMC,200133.00,A,4515.85168,N,07549.02992,W,0.494,,031020,,,D*65
$GPGGA,200133.00,4515.85168,N,07549.02992,W,2,09,1.59,105.8,M,-34.3,M,,0000*67
$GPGSA,A,3,23,20,10,24,18,32,15,21,27,,,,2.64,1.59,2.11*03
$PFLAU,0,1,2,1,0,0,2,0,2147483647*68
$PGRMZ,130,f,3*19
$GPRMC,200134.00,A,4515.85180,N,07549.02956,W,1.409,,031020,,,D*69
$GPGGA,200134.00,4515.85180,N,07549.02956,W,2,09,1.59,105.3,M,-34.3,M,,0000*65
$GPGSA,A,3,23,20,10,24,18,32,15,21,27,,,,2.64,1.59,2.11*03
$PFLAU,0,1,2,1,0,0,2,0,2147483647*68
$PGRMZ,130,f,3*19
$GPRMC,200135.00,A,4515.85178,N,07549.02933,W,0.351,,031020,,,D*67
$GPGGA,200135.00,4515.85178,N,07549.02933,W,2,09,1.59,104.9,M,-34.3,M,,0000*6B
$GPGSA,A,3,23,20,10,24,18,32,15,21,27,,,,2.64,1.59,2.11*03
$PFLAU,0,1,2,1,0,0,2,0,2147483647*68
$PGRMZ,130,f,3*19
$GPRMC,200136.00,A,4515.85180,N,07549.02919,W,1.213,,031020,,,D*6D
$GPGGA,200136.00,4515.85180,N,07549.02919,W,2,08,1.59,105.0,M,-34.3,M,,0000*6E
$GPGSA,A,3,23,20,10,24,18,32,21,27,,,,,2.64,1.59,2.11*07
$PFLAU,0,1,2,1,0,0,2,0,2147483647*68
$PGRMZ,129,f,3*11
$GPRMC,200137.00,A,4515.85187,N,07549.02907,W,0.423,,031020,,,D*60
$GPGGA,200137.00,4515.85187,N,07549.02907,W,2,08,1.59,105.3,M,-34.3,M,,0000*64
$GPGSA,A,3,23,20,10,24,18,32,21,27,,,,,2.64,1.59,2.11*07
$PFLAU,0,1,2,1,0,0,2,0,2147483647*68
$PGRMZ,129,f,3*11
$GPRMC,200138.00,A,4515.85191,N,07549.02899,W,0.214,,031020,,,D*6C
$GPGGA,200138.00,4515.85191,N,07549.02899,W,2,08,1.59,105.1,M,-34.3,M,,0000*68
$GPGSA,A,3,23,20,10,24,18,32,21,27,,,,,2.64,1.59,2.11*07
$PFLAU,0,1,2,1,0,0,2,0,2147483647*68
$PGRMZ,129,f,3*11
$GPRMC,200139.00,A,4515.85193,N,07549.02903,W,0.311,,031020,,,D*69
$GPGGA,200139.00,4515.85193,N,07549.02903,W,2,08,1.59,105.2,M,-34.3,M,,0000*6A
$GPGSA,A,3,23,20,10,24,18,32,21,27,,,,,2.64,1.59,2.11*07
$PFLAU,0,1,2,1,0,0,2,0,2147483647*68
$PGRMZ,129,f,3*11
$GPRMC,200140.00,A,4515.85188,N,07549.02912,W,0.055,,031020,,,D*6E
$GPGGA,200140.00,4515.85188,N,07549.02912,W,2,08,1.59,105.5,M,-34.3,M,,0000*69
$GPGSA,A,3,23,20,10,24,18,32,21,27,,,,,2.64,1.59,2.11*07
$PFLAU,0,1,2,1,0,0,2,0,2147483647*68
$PGRMZ,130,f,3*19
$GPRMC,200141.00,A,4515.85182,N,07549.02929,W,0.323,,031020,,,D*6F
$GPGGA,200141.00,4515.85182,N,07549.02929,W,2,08,1.59,105.9,M,-34.3,M,,0000*66
$GPGSA,A,3,23,20,10,24,18,32,21,27,,,,,2.64,1.59,2.11*07
$PFLAU,0,1,2,1,0,0,2,0,2147483647*68
$PGRMZ,131,f,3*18
$GPRMC,200142.00,A,4515.85174,N,07549.02957,W,0.705,,031020,,,D*6C
$GPGGA,200142.00,4515.85174,N,07549.02957,W,2,08,1.59,106.5,M,-34.3,M,,0000*6A
$GPGSA,A,3,23,20,10,24,18,32,21,27,,,,,2.64,1.59,2.11*07
$PFLAU,0,1,2,1,0,0,2,0,2147483647*68
$PGRMZ,129,f,3*11
$GPRMC,200143.00,A,4515.85174,N,07549.02980,W,0.354,,031020,,,D*67
$GPGGA,200143.00,4515.85174,N,07549.02980,W,2,08,1.59,106.9,M,-34.3,M,,0000*6D
$GPGSA,A,3,23,20,10,24,18,32,21,27,,,,,2.64,1.59,2.11*07
$PFLAU,0,1,2,1,0,0,2,0,2147483647*68
$PGRMZ,131,f,3*18
$GPRMC,200144.00,A,4515.85175,N,07549.03001,W,0.619,,031020,,,D*6C
$GPGGA,200144.00,4515.85175,N,07549.03001,W,2,08,1.59,107.4,M,-34.3,M,,0000*66
$GPGSA,A,3,23,20,10,24,18,32,21,27,,,,,2.64,1.59,2.11*07
$PFLAU,0,1,2,1,0,0,2,0,2147483647*68
$PGRMZ,130,f,3*19
$GPRMC,200145.00,A,4515.85176,N,07549.03013,W,0.176,,031020,,,D*63
$GPGGA,200145.00,4515.85176,N,07549.03013,W,2,08,1.59,107.7,M,-34.3,M,,0000*64
$GPGSA,A,3,23,20,10,24,18,32,21,27,,,,,2.64,1.59,2.11*07
$PFLAU,0,1,2,1,0,0,2,0,2147483647*68
$PGRMZ,128,f,3*10
$GPRMC,200146.00,A,4515.85178,N,07549.03014,W,0.321,,031020,,,D*69
$GPGGA,200146.00,4515.85178,N,07549.03014,W,2,09,1.59,107.8,M,-34.3,M,,0000*60
$GPGSA,A,3,23,20,10,24,18,32,15,21,27,,,,2.64,1.59,2.11*03
$PFLAU,0,1,2,1,0,0,2,0,2147483647*68
$PGRMZ,131,f,3*18
$GPRMC,200147.00,A,4515.85177,N,07549.03013,W,0.360,,031020,,,D*65
$GPGGA,200147.00,4515.85177,N,07549.03013,W,2,09,1.59,107.8,M,-34.3,M,,0000*69
$GPGSA,A,3,23,20,10,24,18,32,15,21,27,,,,2.64,1.59,2.10*02
$PFLAU,0,1,2,1,0,0,2,0,2147483647*68
$PGRMZ,131,f,3*18
$GPRMC,200148.00,A,4515.85182,N,07549.03012,W,0.604,,031020,,,D*66
$GPGGA,200148.00,4515.85182,N,07549.03012,W,2,09,1.59,107.8,M,-34.3,M,,0000*6D
$GPGSA,A,3,23,20,10,24,18,32,15,21,27,,,,2.64,1.59,2.10*02
$PFLAU,0,1,2,1,0,0,2,0,2147483647*68
$PGRMZ,129,f,3*11
$GPRMC,200149.00,A,4515.85193,N,07549.03004,W,0.556,,031020,,,D*64
$GPGGA,200149.00,4515.85193,N,07549.03004,W,2,09,1.07,108.0,M,-34.3,M,,0000*67
$GPGSA,A,3,23,20,10,24,18,32,15,21,27,,,,1.70,1.07,1.33*0D
$PFLAU,0,1,2,1,0,0,2,0,2147483647*68
$PGRMZ,129,f,3*11
$GPRMC,200150.00,A,4515.85212,N,07549.02975,W,1.815,327.55,031020,,,D*7B
$GPGGA,200150.00,4515.85212,N,07549.02975,W,2,09,1.07,107.6,M,-34.3,M,,0000*62
$GPGSA,A,3,23,20,10,24,18,32,15,21,27,,,,1.70,1.07,1.33*0D
$PFLAU,0,1,2,1,0,0,2,0,2147483647*68
$PGRMZ,131,f,3*18
$GPRMC,200151.00,A,4515.85216,N,07549.02950,W,0.932,,031020,,,D*64
$GPGGA,200151.00,4515.85216,N,07549.02950,W,2,09,1.59,107.3,M,-34.3,M,,0000*6E
$GPGSA,A,3,23,20,10,24,18,32,15,21,27,,,,2.64,1.59,2.10*02
$PFLAU,0,1,2,1,0,0,2,0,2147483647*68
$PGRMZ,131,f,3*18
$GPRMC,200152.00,A,4515.85213,N,07549.02945,W,0.408,,031020,,,D*62
$GPGGA,200152.00,4515.85213,N,07549.02945,W,2,09,1.07,107.4,M,-34.3,M,,0000*60
$GPGSA,A,3,23,20,10,24,18,32,15,21,27,,,,1.70,1.07,1.33*0D
$PFLAU,0,1,2,1,0,0,2,0,2147483647*68
$PGRMZ,131,f,3*18
$GPRMC,200153.00,A,4515.85207,N,07549.02978,W,1.699,,031020,,,D*63
$GPGGA,200153.00,4515.85207,N,07549.02978,W,2,09,1.07,107.9,M,-34.3,M,,0000*67
$GPGSA,A,3,23,20,10,24,18,32,15,21,27,,,,1.70,1.07,1.33*0D
$PFLAU,0,1,2,1,0,0,2,0,2147483647*68
$PGRMZ,131,f,3*18
$GPRMC,200154.00,A,4515.85204,N,07549.02985,W,0.908,,031020,,,D*63
$GPGGA,200154.00,4515.85204,N,07549.02985,W,2,09,1.07,108.0,M,-34.3,M,,0000*67
$GPGSA,A,3,23,20,10,24,18,32,15,21,27,,,,1.70,1.07,1.33*0D
$PFLAU,1,1,2,1,0,0,2,0,2147483647*69
$PGRMZ,130,f,3*19
$GPRMC,200155.00,A,4515.85202,N,07549.03005,W,1.176,,031020,,,D*64
$GPGGA,200155.00,4515.85202,N,07549.03005,W,2,09,1.07,108.2,M,-34.3,M,,0000*62
$GPGSA,A,3,23,20,10,24,18,32,15,21,27,,,,1.70,1.07,1.33*0D
$PFLAU,1,1,2,1,0,0,2,0,2147483647*69
$PGRMZ,131,f,3*18
$GPRMC,200156.00,A,4515.85201,N,07549.03029,W,0.186,,031020,,,D*64
$GPGGA,200156.00,4515.85201,N,07549.03029,W,2,08,1.59,108.4,M,-34.3,M,,0000*60
$GPGSA,A,3,23,20,10,24,18,32,21,27,,,,,2.64,1.59,2.10*06
$PFLAU,1,1,2,1,0,0,2,0,2147483647*69
$PGRMZ,131,f,3*18
$GPRMC,200157.00,A,4515.85207,N,07549.03018,W,0.993,,031020,,,D*6D
$GPGGA,200157.00,4515.85207,N,07549.03018,W,2,08,1.59,108.2,M,-34.3,M,,0000*63
$GPGSA,A,3,23,20,10,24,18,32,21,27,,,,,2.64,1.59,2.10*06
$PFLAU,1,1,2,1,0,0,2,0,2147483647*69
$PGRMZ,130,f,3*19
$GPRMC,200158.00,A,4515.85214,N,07549.02997,W,0.609,,031020,,,D*63
$GPGGA,200158.00,4515.85214,N,07549.02997,W,2,09,1.59,107.8,M,-34.3,M,,0000*65
$GPGSA,A,3,23,20,10,24,18,32,15,21,27,,,,2.64,1.59,2.10*02
$PFLAU,1,1,2,1,0,0,2,0,2147483647*69
$PGRMZ,131,f,3*18
$GPRMC,200159.00,A,4515.85221,N,07549.02999,W,0.342,,031020,,,D*60
$GPGGA,200159.00,4515.85221,N,07549.02999,W,2,09,1.59,107.9,M,-34.3,M,,0000*6D
$GPGSA,A,3,23,20,10,24,18,32,15,21,27,,,,2.64,1.59,2.10*02
$PFLAU,1,1,2,1,0,0,2,0,2147483647*69
$PGRMZ,129,f,3*11
$GPRMC,200200.00,A,4515.85219,N,07549.03008,W,0.800,,031020,,,D*69
$GPGGA,200200.00,4515.85219,N,07549.03008,W,2,08,1.59,108.1,M,-34.3,M,,0000*6F
$GPGSA,A,3,23,20,10,24,18,32,21,27,,,,,2.64,1.59,2.10*06
$PFLAU,1,1,2,1,0,0,2,0,2147483647*69
$PGRMZ,131,f,3*18
$GPRMC,200201.00,A,4515.85217,N,07549.03021,W,0.126,,031020,,,D*60
$GPGGA,200201.00,4515.85217,N,07549.03021,W,2,08,1.59,108.4,M,-34.3,M,,0000*6E
$GPGSA,A,3,23,20,10,24,18,32,21,27,,,,,2.64,1.59,2.10*06
$PFLAU,1,1,2,1,0,0,2,0,2147483647*69
$PGRMZ,129,f,3*11
$GPRMC,200202.00,A,4515.85214,N,07549.03014,W,0.315,,031020,,,D*64
$GPGGA,200202.00,4515.85214,N,07549.03014,W,2,08,1.59,108.5,M,-34.3,M,,0000*69
$GPGSA,A,3,23,20,10,24,18,32,21,27,,,,,2.64,1.59,2.10*06
$PFLAU,1,1,2,1,0,0,2,0,2147483647*69
$PGRMZ,129,f,3*11
$GPRMC,200203.00,A,4515.85210,N,07549.03011,W,0.096,,031020,,,D*6C
$GPGGA,200203.00,4515.85210,N,07549.03011,W,2,08,1.59,108.5,M,-34.3,M,,0000*69
$GPGSA,A,3,23,20,10,24,18,32,21,27,,,,,2.64,1.59,2.10*06
$PFLAU,1,1,2,1,0,0,2,0,2147483647*69
$PGRMZ,129,f,3*11
$GPRMC,200204.00,A,4515.85212,N,07549.02994,W,0.616,,031020,,,D*62
$GPGGA,200204.00,4515.85212,N,07549.02994,W,2,08,1.59,108.3,M,-34.3,M,,0000*6F
$GPGSA,A,3,23,20,10,24,18,32,21,27,,,,,2.64,1.59,2.10*06
$PFLAU,1,1,2,1,0,0,2,0,2147483647*69
$PGRMZ,131,f,3*18
$GPRMC,200205.00,A,4515.85210,N,07549.02987,W,0.012,,031020,,,D*61
$GPGGA,200205.00,4515.85210,N,07549.02987,W,2,08,1.59,108.2,M,-34.3,M,,0000*6F
$GPGSA,A,3,23,20,10,24,18,32,21,27,,,,,2.64,1.59,2.10*06
$PFLAU,0,1,2,1,0,0,2,0,2147483647*68
$PGRMZ,129,f,3*11
$GPRMC,200206.00,A,4515.85208,N,07549.02984,W,0.335,,031020,,,D*6E
$GPGGA,200206.00,4515.85208,N,07549.02984,W,2,09,1.59,108.1,M,-34.3,M,,0000*64
$GPGSA,A,3,23,20,10,24,18,32,15,21,27,,,,2.64,1.59,2.10*02
$PFLAU,0,1,2,1,0,0,2,0,2147483647*68
$PGRMZ,129,f,3*11
$GPRMC,200207.00,A,4515.85211,N,07549.02966,W,0.526,,031020,,,D*6F
$GPGGA,200207.00,4515.85211,N,07549.02966,W,2,09,1.59,107.9,M,-34.3,M,,0000*66
$GPGSA,A,3,23,20,10,24,18,32,15,21,27,,,,2.63,1.59,2.10*05
$PFLAU,1,1,2,1,0,0,2,0,2147483647*69
$PGRMZ,130,f,3*19
$GPRMC,200208.00,A,4515.85212,N,07549.02930,W,0.420,,031020,,,D*67
$GPGGA,200208.00,4515.85212,N,07549.02930,W,2,10,1.59,107.4,M,-34.3,M,,0000*6C
$GPGSA,A,3,23,20,10,24,18,32,15,21,27,08,,,2.63,1.59,2.10*0D
$PFLAU,1,1,2,1,0,0,2,0,2147483647*69
$PGRMZ,129,f,3*11
$GPRMC,200209.00,A,4515.85199,N,07549.02931,W,0.934,,031020,,,D*6F
$GPGGA,200209.00,4515.85199,N,07549.02931,W,2,10,1.07,107.6,M,-34.3,M,,0000*65
$GPGSA,A,3,23,20,10,24,18,32,15,21,27,08,,,1.70,1.07,1.32*04
$PFLAU,2,1,2,1,0,0,2,0,2147483647*6A
$PGRMZ,129,f,3*11
$GPRMC,200210.00,A,4515.85191,N,07549.02945,W,0.157,,031020,,,D*61
$GPGGA,200210.00,4515.85191,N,07549.02945,W,2,10,1.07,108.0,M,-34.3,M,,0000*6F
$GPGSA,A,3,23,20,10,24,18,32,15,21,27,08,,,1.70,1.07,1.32*04
$PFLAU,2,1,2,1,0,0,2,0,2147483647*6A
$PGRMZ,128,f,3*10
$GPRMC,200211.00,A,4515.85193,N,07549.02939,W,0.625,,031020,,,D*6B
$GPGGA,200211.00,4515.85193,N,07549.02939,W,2,10,1.07,108.0,M,-34.3,M,,0000*67
$GPGSA,A,3,23,20,10,24,18,32,15,21,27,08,,,1.70,1.07,1.32*04
$PFLAU,2,1,2,1,0,0,2,0,2147483647*6A
$PGRMZ,128,f,3*10
$GPRMC,200212.00,A,4515.85201,N,07549.02928,W,0.783,,031020,,,D*6D
$GPGGA,200212.00,4515.85201,N,07549.02928,W,2,10,1.07,107.9,M,-34.3,M,,0000*6A
$GPGSA,A,3,23,20,10,24,18,32,15,21,27,08,,,1.70,1.07,1.32*04
$PFLAU,2,1,2,1,0,0,2,0,2147483647*6A
$PGRMZ,129,f,3*11
$GPRMC,200213.00,A,4515.85202,N,07549.02941,W,0.381,,031020,,,D*66
$GPGGA,200213.00,4515.85202,N,07549.02941,W,2,10,1.07,108.1,M,-34.3,M,,0000*60
$GPGSA,A,3,23,20,10,24,18,32,15,21,27,08,,,1.70,1.07,1.32*04
$PFLAU,2,1,2,1,0,0,2,0,2147483647*6A
$PGRMZ,129,f,3*11
$GPRMC,200214.00,A,4515.85194,N,07549.02938,W,0.771,,031020,,,D*68
$GPGGA,200214.00,4515.85194,N,07549.02938,W,2,09,1.07,108.0,M,-34.3,M,,0000*6C
$GPGSA,A,3,23,20,10,24,18,32,15,21,27,,,,1.70,1.07,1.32*0C
$PFLAU,2,1,2,1,0,0,2,0,2147483647*6A
$PGRMZ,129,f,3*11
$GPRMC,200215.00,A,4515.85191,N,07549.02943,W,0.110,,031020,,,D*61
$GPGGA,200215.00,4515.85191,N,07549.02943,W,2,09,1.07,108.3,M,-34.3,M,,0000*67
$GPGSA,A,3,23,20,10,24,18,32,15,21,27,,,,1.70,1.07,1.32*0C
$PFLAU,1,1,2,1,0,0,2,0,2147483647*69
$PGRMZ,130,f,3*19
$GPRMC,200216.00,A,4515.85186,N,07549.02956,W,0.243,,031020,,,D*65
$GPGGA,200216.00,4515.85186,N,07549.02956,W,2,09,1.07,108.6,M,-34.3,M,,0000*63
$GPGSA,A,3,23,20,10,24,18,32,15,21,27,,,,1.70,1.07,1.32*0C
$PFLAU,2,1,2,1,0,0,2,0,2147483647*6A
$PGRMZ,129,f,3*11
$GPRMC,200217.00,A,4515.85181,N,07549.02976,W,0.198,,031020,,,D*64
$GPGGA,200217.00,4515.85181,N,07549.02976,W,2,09,1.07,108.9,M,-34.3,M,,0000*68
$GPGSA,A,3,23,20,10,24,18,32,15,21,27,,,,1.70,1.07,1.32*0C
$PFLAU,2,1,2,1,0,0,2,0,2147483647*6A
$PGRMZ,129,f,3*11
$GPRMC,200218.00,A,4515.85179,N,07549.03002,W,0.233,,031020,,,D*65
$GPGGA,200218.00,4515.85179,N,07549.03002,W,2,09,1.07,109.1,M,-34.3,M,,0000*62
$GPGSA,A,3,23,20,10,24,18,32,15,21,27,,,,1.70,1.07,1.32*0C
$PFLAU,2,1,2,1,0,0,2,0,2147483647*6A
$PGRMZ,131,f,3*18
$GPRMC,200219.00,A,4515.85184,N,07549.03016,W,0.388,,031020,,,D*62
$GPGGA,200219.00,4515.85184,N,07549.03016,W,2,09,1.07,109.5,M,-34.3,M,,0000*60
$GPGSA,A,3,23,20,10,24,18,32,15,21,27,,,,1.70,1.07,1.32*0C
$PFLAU,2,1,2,1,0,0,2,0,2147483647*6A
$PGRMZ,130,f,3*19
$GPRMC,200220.00,A,4515.85188,N,07549.03031,W,0.370,,031020,,,A*63
$GPGGA,200220.00,4515.85188,N,07549.03031,W,1,09,1.07,109.9,M,-34.3,M,,*6C
$GPGSA,A,3,23,20,10,24,18,32,15,21,27,,,,1.70,1.07,1.32*0C
$PFLAU,2,1,2,1,0,0,2,0,2147483647*6A
$PGRMZ,129,f,3*11
$GPRMC,200221.00,A,4515.85213,N,07549.02992,W,2.216,14.87,031020,,,A*45
$GPGGA,200221.00,4515.85213,N,07549.02992,W,1,09,1.59,109.3,M,-34.3,M,,*6C
$GPGSA,A,3,23,20,10,24,18,32,15,21,27,,,,2.63,1.59,2.10*05
$PFLAU,2,1,2,1,0,0,2,0,2147483647*6A
$PGRMZ,128,f,3*10
$GPRMC,200222.00,A,4515.85232,N,07549.02958,W,0.485,,031020,,,A*69
$GPGGA,200222.00,4515.85232,N,07549.02958,W,1,09,1.59,108.8,M,-34.3,M,,*60
$GPGSA,A,3,23,20,10,24,18,32,15,21,27,,,,2.63,1.59,2.10*05
$PFLAU,2,1,2,1,0,0,2,0,2147483647*6A
$PGRMZ,128,f,3*10
$GPRMC,200223.00,A,4515.85234,N,07549.02975,W,1.015,,031020,,,A*6D
$GPGGA,200223.00,4515.85234,N,07549.02975,W,1,09,1.59,108.7,M,-34.3,M,,*67
$GPGSA,A,3,23,20,10,24,18,32,15,21,27,,,,2.63,1.59,2.10*05
$PFLAU,2,1,2,1,0,0,2,0,2147483647*6A
$PGRMZ,128,f,3*10
$GPRMC,200224.00,A,4515.85229,N,07549.02987,W,0.360,,031020,,,A*6B
$GPGGA,200224.00,4515.85229,N,07549.02987,W,1,09,1.59,108.7,M,-34.3,M,,*61
$GPGSA,A,3,23,20,10,24,18,32,15,21,27,,,,2.63,1.59,2.10*05
$PFLAU,2,1,2,1,0,0,2,0,2147483647*6A
$PGRMZ,128,f,3*10
$GPRMC,200225.00,A,4515.85244,N,07549.02967,W,1.159,,031020,,,A*66
$GPGGA,200225.00,4515.85244,N,07549.02967,W,1,09,1.59,108.3,M,-34.3,M,,*61
$GPGSA,A,3,23,20,10,24,18,32,15,21,27,,,,2.63,1.59,2.10*05
$PFLAU,2,1,2,1,0,0,2,0,2147483647*6A
$PGRMZ,127,f,3*1F
$GPRMC,200226.00,A,4515.85253,N,07549.02956,W,0.648,,031020,,,A*67
$GPGGA,200226.00,4515.85253,N,07549.02956,W,1,09,1.59,108.0,M,-34.3,M,,*65
$GPGSA,A,3,23,20,10,24,18,32,15,21,27,,,,2.63,1.59,2.10*05
$PFLAU,2,1,2,1,0,0,2,0,2147483647*6A
$PGRMZ,128,f,3*10
$GPRMC,200227.00,A,4515.85249,N,07549.02950,W,0.567,,031020,,,A*65
$GPGGA,200227.00,4515.85249,N,07549.02950,W,1,09,1.59,107.8,M,-34.3,M,,*6E
$GPGSA,A,3,23,20,10,24,18,32,15,21,27,,,,2.63,1.59,2.10*05
$PFLAU,2,1,2,1,0,0,2,0,2147483647*6A
$PGRMZ,128,f,3*10
$GPRMC,200228.00,A,4515.85246,N,07549.02954,W,0.523,,031020,,,A*61
$GPGGA,200228.00,4515.85246,N,07549.02954,W,1,09,1.59,107.5,M,-34.3,M,,*67
$GPGSA,A,3,23,20,10,24,18,32,15,21,27,,,,2.63,1.59,2.10*05
$PFLAU,1,1,2,1,0,0,2,0,2147483647*69
$PGRMZ,131,f,3*18
$GPRMC,200229.00,A,4515.85230,N,07549.02964,W,0.837,,031020,,,A*6A
$GPGGA,200229.00,4515.85230,N,07549.02964,W,1,09,1.59,107.4,M,-34.3,M,,*65
$GPGSA,A,3,23,20,10,24,18,32,15,21,27,,,,2.63,1.59,2.10*05
$PFLAU,0,1,2,1,0,0,2,0,2147483647*68
$PGRMZ,129,f,3*11
$GPRMC,200230.00,A,4515.85206,N,07549.02979,W,0.890,,031020,,,A*66
$GPGGA,200230.00,4515.85206,N,07549.02979,W,1,09,1.59,107.3,M,-34.3,M,,*63
$GPGSA,A,3,23,20,10,24,18,32,15,21,27,,,,2.63,1.59,2.10*05
$PFLAU,0,1,2,1,0,0,2,0,2147483647*68
$PGRMZ,130,f,3*19
$GPRMC,200231.00,A,4515.85171,N,07549.02997,W,1.253,,031020,,,A*60
$GPGGA,200231.00,4515.85171,N,07549.02997,W,1,09,1.07,107.5,M,-34.3,M,,*6C
$GPGSA,A,3,23,20,10,24,18,32,15,21,27,,,,1.70,1.07,1.32*0C
$PFLAU,1,1,2,1,0,0,2,0,2147483647*69
$PGRMZ,130,f,3*19
$GPRMC,200232.00,A,4515.85167,N,07549.02981,W,0.863,,031020,,,A*6B
$GPGGA,200232.00,4515.85167,N,07549.02981,W,1,09,1.07,107.3,M,-34.3,M,,*69
$GPGSA,A,3,23,20,10,24,18,32,15,21,27,,,,1.70,1.07,1.32*0C
$PFLAU,1,1,2,1,0,0,2,0,2147483647*69
$PGRMZ,130,f,3*19
$GPRMC,200233.00,A,4515.85175,N,07549.02968,W,0.046,,031020,,,A*61
$GPGGA,200233.00,4515.85175,N,07549.02968,W,1,09,1.07,106.9,M,-34.3,M,,*67
$GPGSA,A,3,23,20,10,24,18,32,15,21,27,,,,1.70,1.07,1.32*0C
$PFLAU,1,1,2,1,0,0,2,0,2147483647*69
$PGRMZ,129,f,3*11
$GPRMC,200234.00,A,4515.85167,N,07549.02990,W,1.279,,031020,,,A*6D
$GPGGA,200234.00,4515.85167,N,07549.02990,W,1,09,1.07,107.0,M,-34.3,M,,*6C
$GPGSA,A,3,23,20,10,24,18,32,15,21,27,,,,1.70,1.07,1.32*0C
$PFLAU,1,1,2,1,0,0,2,0,2147483647*69
$PGRMZ,129,f,3*11
$GPRMC,200235.00,A,4515.85155,N,07549.03033,W,1.546,,031020,,,A*67
$GPGGA,200235.00,4515.85155,N,07549.03033,W,1,09,1.07,107.7,M,-34.3,M,,*6A
$GPGSA,A,3,23,20,10,24,18,32,15,21,27,,,,1.70,1.07,1.32*0C
$PFLAU,1,1,2,1,0,0,2,0,2147483647*69
$PGRMZ,130,f,3*19
$GPRMC,200236.00,A,4515.85151,N,07549.03049,W,0.412,,031020,,,A*6C
$GPGGA,200236.00,4515.85151,N,07549.03049,W,1,09,1.07,107.9,M,-34.3,M,,*6E
$GPGSA,A,3,23,20,10,24,18,32,15,21,27,,,,1.70,1.07,1.32*0C
$PFLAU,2,1,2,1,0,0,2,0,2147483647*6A
$PGRMZ,129,f,3*11
$GPRMC,200237.00,A,4515.85158,N,07549.03046,W,0.327,,031020,,,A*6A
$GPGGA,200237.00,4515.85158,N,07549.03046,W,1,09,1.07,107.7,M,-34.3,M,,*67
$GPGSA,A,3,23,20,10,24,18,32,15,21,27,,,,1.70,1.07,1.32*0C
$PFLAU,2,1,2,1,0,0,2,0,2147483647*6A
$PGRMZ,128,f,3*10
$GPRMC,200238.00,A,4515.85171,N,07549.03040,W,0.864,,031020,,,A*64
$GPGGA,200238.00,4515.85171,N,07549.03040,W,1,09,1.07,107.5,M,-34.3,M,,*67
$GPGSA,A,3,23,20,10,24,18,32,15,21,27,,,,1.70,1.07,1.32*0C
$PFLAU,2,1,2,1,0,0,2,0,2147483647*6A
$PGRMZ,128,f,3*10
$GPRMC,200239.00,A,4515.85179,N,07549.03044,W,0.331,,031020,,,A*62
$GPGGA,200239.00,4515.85179,N,07549.03044,W,1,09,1.07,107.6,M,-34.3,M,,*69
$GPGSA,A,3,23,20,10,24,18,32,15,21,27,,,,1.70,1.07,1.32*0C
$PFLAU,2,1,2,1,0,0,2,0,2147483647*6A
$PGRMZ,129,f,3*11
$GPRMC,200240.00,A,4515.85177,N,07549.03056,W,0.036,,031020,,,A*65
$GPGGA,200240.00,4515.85177,N,07549.03056,W,1,09,1.07,107.8,M,-34.3,M,,*64
$GPGSA,A,3,23,20,10,24,18,32,15,21,27,,,,1.70,1.07,1.32*0C
$PFLAU,2,1,2,1,0,0,2,0,2147483647*6A
$PGRMZ,130,f,3*19
$GPRMC,200241.00,A,4515.85166,N,07549.03094,W,1.034,,031020,,,A*69
$GPGGA,200241.00,4515.85166,N,07549.03094,W,1,09,1.07,108.5,M,-34.3,M,,*69
$GPGSA,A,3,23,20,10,24,18,32,15,21,27,,,,1.70,1.07,1.32*0C
$PFLAU,2,1,2,1,0,0,2,0,2147483647*6A
$PGRMZ,129,f,3*11
$GPRMC,200242.00,A,4515.85151,N,07549.03130,W,0.160,,031020,,,A*60
$GPGGA,200242.00,4515.85151,N,07549.03130,W,1,09,1.07,108.9,M,-34.3,M,,*6D
$GPGSA,A,3,23,20,10,24,18,32,15,21,27,,,,1.70,1.07,1.32*0C
$PFLAU,2,1,2,1,0,0,2,0,2147483647*6A
$PGRMZ,129,f,3*11
$GPRMC,200243.00,A,4515.85146,N,07549.03152,W,0.387,,031020,,,A*68
$GPGGA,200243.00,4515.85146,N,07549.03152,W,1,09,1.07,109.2,M,-34.3,M,,*64
$GPGSA,A,3,23,20,10,24,18,32,15,21,27,,,,1.70,1.07,1.32*0C
$PFLAU,2,1,2,1,0,0,2,0,2147483647*6A
$PGRMZ,130,f,3*19
$GPRMC,200244.00,A,4515.85144,N,07549.03175,W,0.338,,031020,,,A*6C
$GPGGA,200244.00,4515.85144,N,07549.03175,W,1,09,1.07,109.4,M,-34.3,M,,*62
$GPGSA,A,3,23,20,10,24,18,32,15,21,27,,,,1.70,1.07,1.32*0C
$PFLAU,1,1,2,1,0,0,2,0,2147483647*69
$PGRMZ,128,f,3*10
$GPRMC,200245.00,A,4515.85145,N,07549.03186,W,0.870,,031020,,,A*67
$GPGGA,200245.00,4515.85145,N,07549.03186,W,1,09,1.07,109.4,M,-34.3,M,,*6E
$GPGSA,A,3,23,20,10,24,18,32,15,21,27,,,,1.70,1.07,1.32*0C
$PFLAU,1,1,2,1,0,0,2,0,2147483647*69
$PGRMZ,129,f,3*11
$GPRMC,200246.00,A,4515.85135,N,07549.03191,W,0.396,,031020,,,A*66
$GPGGA,200246.00,4515.85135,N,07549.03191,W,1,09,1.07,109.4,M,-34.3,M,,*6C
$GPGSA,A,3,23,20,10,24,18,32,15,21,27,,,,1.70,1.07,1.32*0C
$PFLAU,2,1,2,1,0,0,2,0,2147483647*6A
$PGRMZ,129,f,3*11
$GPRMC,200247.00,A,4515.85125,N,07549.03190,W,0.908,,031020,,,A*6A
$GPGGA,200247.00,4515.85125,N,07549.03190,W,1,09,1.07,109.5,M,-34.3,M,,*6C
$GPGSA,A,3,23,20,10,24,18,32,15,21,27,,,,1.70,1.07,1.32*0C
$PFLAU,2,1,2,1,0,0,2,0,2147483647*6A
$PGRMZ,129,f,3*11
$GPRMC,200248.00,A,4515.85123,N,07549.03175,W,0.624,,031020,,,A*69
$GPGGA,200248.00,4515.85123,N,07549.03175,W,1,09,1.07,109.3,M,-34.3,M,,*68
$GPGSA,A,3,23,20,10,24,18,32,15,21,27,,,,1.70,1.07,1.32*0C
$PFLAU,2,1,2,1,0,0,2,0,2147483647*6A
$PGRMZ,131,f,3*18
$GPRMC,200249.00,A,4515.85119,N,07549.03170,W,0.415,,031020,,,A*64
$GPGGA,200249.00,4515.85119,N,07549.03170,W,1,09,1.07,109.1,M,-34.3,M,,*67
$GPGSA,A,3,23,20,10,24,18,32,15,21,27,,,,1.70,1.07,1.32*0C
$PFLAU,2,1,2,1,0,0,2,0,2147483647*6A
$PGRMZ,129,f,3*11
$GPRMC,200250.00,A,4515.85111,N,07549.03164,W,0.701,,031020,,,A*67
$GPGGA,200250.00,4515.85111,N,07549.03164,W,1,09,1.07,109.1,M,-34.3,M,,*62
$GPGSA,A,3,23,20,10,24,18,32,15,21,27,,,,1.70,1.07,1.32*0C
$PFLAU,2,1,2,1,0,0,2,0,2147483647*6A
$PGRMZ,130,f,3*19
$GPRMC,200251.00,A,4515.85108,N,07549.03137,W,1.133,,031020,,,A*6E
$GPGGA,200251.00,4515.85108,N,07549.03137,W,1,09,1.07,108.6,M,-34.3,M,,*6B
$GPGSA,A,3,23,20,10,24,18,32,15,21,27,,,,1.70,1.07,1.32*0C
$PFLAU,2,1,2,1,0,0,2,0,2147483647*6A
$PGRMZ,129,f,3*11
$GPRMC,200252.00,A,4515.85118,N,07549.03086,W,1.974,37.33,031020,,,A*46
$GPGGA,200252.00,4515.85118,N,07549.03086,W,1,09,1.07,107.6,M,-34.3,M,,*6D
$GPGSA,A,3,23,20,10,24,18,32,15,21,27,,,,1.70,1.07,1.32*0C
$PFLAU,2,1,2,1,0,0,2,0,2147483647*6A
$PGRMZ,129,f,3*11
$GPRMC,200253.00,A,4515.85128,N,07549.03053,W,0.568,,031020,,,A*66
$GPGGA,200253.00,4515.85128,N,07549.03053,W,1,08,1.59,107.1,M,-34.3,M,,*6A
$GPGSA,A,3,23,20,10,24,18,32,21,27,,,,,2.63,1.59,2.09*09
$PFLAU,2,1,2,1,0,0,2,0,2147483647*6A
$PGRMZ,129,f,3*11
$GPRMC,200254.00,A,4515.85139,N,07549.03029,W,0.853,,031020,,,A*69
$GPGGA,200254.00,4515.85139,N,07549.03029,W,1,08,1.59,106.7,M,-34.3,M,,*67
$GPGSA,A,3,23,20,10,24,18,32,21,27,,,,,2.63,1.59,2.09*09
$PFLAU,1,1,2,1,0,0,2,0,2147483647*69
$PGRMZ,129,f,3*11
$GPRMC,200255.00,A,4515.85143,N,07549.03013,W,0.222,,031020,,,A*60
$GPGGA,200255.00,4515.85143,N,07549.03013,W,1,08,1.59,106.7,M,-34.3,M,,*62
$GPGSA,A,3,23,20,10,24,18,32,21,27,,,,,2.63,1.59,2.09*09
$PFLAU,1,1,2,1,0,0,2,0,2147483647*69
$PGRMZ,127,f,3*1F
$GPRMC,200256.00,A,4515.85133,N,07549.03012,W,0.823,,031020,,,A*6E
$GPGGA,200256.00,4515.85133,N,07549.03012,W,1,08,1.59,107.0,M,-34.3,M,,*61
$GPGSA,A,3,23,20,10,24,18,32,21,27,,,,,2.62,1.59,2.09*08
$PFLAU,1,1,2,1,0,0,2,0,2147483647*69
$PGRMZ,128,f,3*10
$GPRMC,200257.00,A,4515.85127,N,07549.03006,W,0.431,,031020,,,A*60
$GPGGA,200257.00,4515.85127,N,07549.03006,W,1,09,1.59,107.0,M,-34.3,M,,*61
$GPGSA,A,3,23,20,10,24,18,32,15,21,27,,,,2.62,1.59,2.09*0C
$PFLAU,1,1,2,1,0,0,2,0,2147483647*69
$PGRMZ,128,f,3*10
$GPRMC,200258.00,A,4515.85129,N,07549.02991,W,0.089,,031020,,,A*60
$GPGGA,200258.00,4515.85129,N,07549.02991,W,1,09,1.59,106.8,M,-34.3,M,,*6F
$GPGSA,A,3,23,20,10,24,18,32,15,21,27,,,,2.62,1.59,2.09*0C
$PFLAU,1,1,2,1,0,0,2,0,2147483647*69
$PGRMZ,128,f,3*10
$GPRMC,200259.00,A,4515.85131,N,07549.02967,W,0.107,,031020,,,A*66
$GPGGA,200259.00,4515.85131,N,07549.02967,W,1,09,1.59,106.4,M,-34.3,M,,*62
$GPGSA,A,3,23,20,10,24,18,32,15,21,27,,,,2.62,1.59,2.09*0C
$PFLAU,1,1,2,1,0,0,2,0,2147483647*69
$PGRMZ,129,f,3*11
$GPRMC,200300.00,A,4515.85131,N,07549.02938,W,0.331,,031020,,,A*66
$GPGGA,200300.00,4515.85131,N,07549.02938,W,1,09,1.59,106.0,M,-34.3,M,,*61
$GPGSA,A,3,23,20,10,24,18,32,15,21,27,,,,2.62,1.59,2.09*0C
$PFLAU,2,1,2,1,0,0,2,0,2147483647*6A
$PGRMZ,128,f,3*10
$GPRMC,200301.00,A,4515.85128,N,07549.02896,W,1.063,,031020,,,A*6F
$GPGGA,200301.00,4515.85128,N,07549.02896,W,1,09,1.07,105.2,M,-34.3,M,,*67
$GPGSA,A,3,23,20,10,24,18,32,15,21,27,,,,1.69,1.07,1.31*07
$PFLAU,2,1,2,1,0,0,2,0,2147483647*6A
$PGRMZ,128,f,3*10
$GPRMC,200302.00,A,4515.85136,N,07549.02809,W,2.457,57.20,031020,,,A*4B
$GPGGA,200302.00,4515.85136,N,07549.02809,W,1,09,1.07,103.6,M,-34.3,M,,*6F
$GPGSA,A,3,23,20,10,24,18,32,15,21,27,,,,1.69,1.07,1.31*07
$PFLAU,1,1,2,1,0,0,2,0,2147483647*69
$PGRMZ,131,f,3*18
$GPRMC,200303.00,A,4515.85140,N,07549.02759,W,0.862,,031020,,,A*67
$GPGGA,200303.00,4515.85140,N,07549.02759,W,1,08,1.58,102.7,M,-34.3,M,,*6E
$GPGSA,A,3,23,20,10,24,18,32,21,27,,,,,2.62,1.58,2.09*09
$PFLAU,2,1,2,1,0,0,2,0,2147483647*6A
$PGRMZ,128,f,3*10
$GPRMC,200304.00,A,4515.85134,N,07549.02751,W,0.789,,031020,,,A*61
$GPGGA,200304.00,4515.85134,N,07549.02751,W,1,08,1.58,102.8,M,-34.3,M,,*6D
$GPGSA,A,3,23,20,10,24,18,32,21,27,,,,,2.62,1.58,2.09*09
$PFLAU,2,1,2,1,0,0,2,0,2147483647*6A
$PGRMZ,129,f,3*11
$GPRMC,200305.00,A,4515.85134,N,07549.02756,W,0.524,,031020,,,A*62
$GPGGA,200305.00,4515.85134,N,07549.02756,W,1,08,1.58,103.2,M,-34.3,M,,*60
$GPGSA,A,3,23,20,10,24,18,32,21,27,,,,,2.62,1.58,2.09*09
$PFLAU,2,1,2,1,0,0,2,0,2147483647*6A
$PGRMZ,128,f,3*10
$GPRMC,200306.00,A,4515.85146,N,07549.02769,W,0.722,,031020,,,A*6C
$GPGGA,200306.00,4515.85146,N,07549.02769,W,1,08,1.58,103.9,M,-34.3,M,,*61
$GPGSA,A,3,23,20,10,24,18,32,21,27,,,,,2.62,1.58,2.09*09
$PFLAU,2,1,2,1,0,0,2,0,2147483647*6A
$PGRMZ,129,f,3*11
$GPRMC,200307.00,A,4515.85147,N,07549.02785,W,0.380,,031020,,,A*62
$GPGGA,200307.00,4515.85147,N,07549.02785,W,1,08,1.58,104.5,M,-34.3,M,,*68
$GPGSA,A,3,23,20,10,24,18,32,21,27,,,,,2.62,1.58,2.09*09
$PFLAU,3,1,2,1,0,0,2,0,2147483647*6B
$PGRMZ,129,f,3*11
$GPRMC,200308.00,A,4515.85151,N,07549.02789,W,0.499,,031020,,,A*69
$GPGGA,200308.00,4515.85151,N,07549.02789,W,1,08,1.58,104.9,M,-34.3,M,,*60
$GPGSA,A,3,23,20,10,24,18,32,21,27,,,,,2.62,1.58,2.09*09
$PFLAU,3,1,2,1,0,0,2,0,2147483647*6B
$PGRMZ,129,f,3*11
$GPRMC,200309.00,A,4515.85158,N,07549.02794,W,0.522,,031020,,,A*6C
$GPGGA,200309.00,4515.85158,N,07549.02794,W,1,09,1.58,105.3,M,-34.3,M,,*6E
$GPGSA,A,3,23,20,10,24,18,32,15,21,27,,,,2.62,1.58,2.09*0D
$PFLAU,3,1,2,1,0,0,2,0,2147483647*6B
$PGRMZ,128,f,3*10
$GPRMC,200310.00,A,4515.85170,N,07549.02809,W,0.410,,031020,,,A*65
$GPGGA,200310.00,4515.85170,N,07549.02809,W,1,09,1.58,106.0,M,-34.3,M,,*67
$GPGSA,A,3,23,20,10,24,18,32,15,21,27,,,,2.62,1.58,2.09*0D
$PFLAU,3,1,2,1,0,0,2,0,2147483647*6B
$PGRMZ,128,f,3*10
$GPRMC,200311.00,A,4515.85176,N,07549.02822,W,0.561,,031020,,,A*6C
$GPGGA,200311.00,4515.85176,N,07549.02822,W,1,09,1.07,106.5,M,-34.3,M,,*66
$GPGSA,A,3,23,20,10,24,18,32,15,21,27,,,,1.69,1.07,1.31*07
$PFLAU,3,1,2,1,0,0,2,0,2147483647*6B
$PGRMZ,129,f,3*11
$GPRMC,200312.00,A,4515.85184,N,07549.02834,W,0.853,,031020,,,A*69
$GPGGA,200312.00,4515.85184,N,07549.02834,W,1,09,1.07,107.0,M,-34.3,M,,*6B
$GPGSA,A,3,23,20,10,24,18,32,15,21,27,,,,1.69,1.07,1.31*07
$PFLAU,2,1,2,1,0,0,2,0,2147483647*6A
$PGRMZ,129,f,3*11
$GPRMC,200313.00,A,4515.85194,N,07549.02846,W,0.385,,031020,,,A*6C
$GPGGA,200313.00,4515.85194,N,07549.02846,W,1,09,1.07,107.5,M,-34.3,M,,*6B
$GPGSA,A,3,23,20,10,24,18,32,15,21,27,,,,1.69,1.07,1.31*07
$PFLAU,2,1,2,1,0,0,2,0,2147483647*6A
$PGRMZ,129,f,3*11
$GPRMC,200314.00,A,4515.85213,N,07549.02824,W,2.626,68.81,031020,,,A*44
$GPGGA,200314.00,4515.85213,N,07549.02824,W,1,09,1.07,107.5,M,-34.3,M,,*64
$GPGSA,A,3,23,20,10,24,18,32,15,21,27,,,,1.69,1.07,1.31*07
$PFLAU,2,1,2,1,0,0,2,0,2147483647*6A
$PGRMZ,128,f,3*10
$GPRMC,200315.00,A,4515.85249,N,07549.02763,W,2.813,57.62,031020,,,A*4F
$GPGGA,200315.00,4515.85249,N,07549.02763,W,1,09,1.07,106.9,M,-34.3,M,,*6B
$GPGSA,A,3,23,20,10,24,18,32,15,21,27,,,,1.69,1.07,1.31*07
$PFLAU,2,1,2,1,0,0,2,0,2147483647*6A
$PGRMZ,129,f,3*11
$GPRMC,200316.00,A,4515.85260,N,07549.02778,W,0.423,,031020,,,A*68
$GPGGA,200316.00,4515.85260,N,07549.02778,W,1,09,1.58,107.3,M,-34.3,M,,*68
$GPGSA,A,3,23,20,10,24,18,32,15,21,27,,,,2.62,1.58,2.09*0D
$PFLAU,2,1,2,1,0,0,2,0,2147483647*6A
$PGRMZ,128,f,3*10
$GPRMC,200317.00,A,4515.85247,N,07549.02835,W,0.428,,031020,,,A*61
$GPGGA,200317.00,4515.85247,N,07549.02835,W,1,09,1.58,108.3,M,-34.3,M,,*65
$GPGSA,A,3,23,20,10,24,18,32,15,21,27,,,,2.62,1.58,2.09*0D
$PFLAU,2,1,2,1,0,0,2,0,2147483647*6A
$PGRMZ,127,f,3*1F
$GPRMC,200318.00,A,4515.85241,N,07549.02880,W,0.164,,031020,,,A*6B
$GPGGA,200318.00,4515.85241,N,07549.02880,W,1,09,1.58,109.2,M,-34.3,M,,*62
$GPGSA,A,3,23,20,10,24,18,32,15,21,27,,,,2.62,1.58,2.09*0D
$PFLAU,2,1,2,1,0,0,2,0,2147483647*6A
$PGRMZ,127,f,3*1F
$GPRMC,200319.00,A,4515.85243,N,07549.02898,W,0.922,,031020,,,A*6B
$GPGGA,200319.00,4515.85243,N,07549.02898,W,1,09,1.58,109.5,M,-34.3,M,,*6F
$GPGSA,A,3,23,20,10,24,18,32,15,21,27,,,,2.62,1.58,2.09*0D
$PFLAU,2,1,2,1,0,0,2,0,2147483647*6A
$PGRMZ,129,f,3*11
$GPRMC,200320.00,A,4515.85256,N,07549.02893,W,0.855,,031020,,,A*6F
$GPGGA,200320.00,4515.85256,N,07549.02893,W,1,09,1.58,109.5,M,-34.3,M,,*6A
$GPGSA,A,3,23,20,10,24,18,32,15,21,27,,,,2.62,1.58,2.09*0D
$PFLAU,2,1,2,1,0,0,2,0,2147483647*6A
$PGRMZ,128,f,3*10
$GPRMC,200321.00,A,4515.85259,N,07549.02896,W,0.667,,031020,,,A*6B
$GPGGA,200321.00,4515.85259,N,07549.02896,W,1,09,1.58,109.6,M,-34.3,M,,*62
$GPGSA,A,3,23,20,10,24,18,32,15,21,27,,,,2.62,1.58,2.09*0D
$PFLAU,2,1,2,1,0,0,2,0,2147483647*6A
$PGRMZ,127,f,3*1F
$GPRMC,200322.00,A,4515.85253,N,07549.02898,W,0.167,,031020,,,A*6B
$GPGGA,200322.00,4515.85253,N,07549.02898,W,1,09,1.58,109.7,M,-34.3,M,,*64
$GPGSA,A,3,23,20,10,24,18,32,15,21,27,,,,2.62,1.58,2.09*0D
$PFLAU,1,1,2,1,0,0,2,0,2147483647*69
$PGRMZ,127,f,3*1F
$GPRMC,200323.00,A,4515.85242,N,07549.02907,W,0.278,,031020,,,A*60
$GPGGA,200323.00,4515.85242,N,07549.02907,W,1,09,1.58,109.8,M,-34.3,M,,*6D
$GPGSA,A,3,23,20,10,24,18,32,15,21,27,,,,2.62,1.58,2.09*0D
$PFLAU,2,1,2,1,0,0,2,0,2147483647*6A
$PGRMZ,128,f,3*10
$GPRMC,200324.00,A,4515.85238,N,07549.02898,W,0.878,,031020,,,A*67
$GPGGA,200324.00,4515.85238,N,07549.02898,W,1,09,1.58,109.6,M,-34.3,M,,*6E
$GPGSA,A,3,23,20,10,24,18,32,15,21,27,,,,2.62,1.58,2.09*0D
$PFLAU,2,1,2,1,0,0,2,0,2147483647*6A
$PGRMZ,126,f,3*1E
$GPRMC,200325.00,A,4515.85235,N,07549.02880,W,0.727,,031020,,,A*67
$GPGGA,200325.00,4515.85235,N,07549.02880,W,1,09,1.58,109.2,M,-34.3,M,,*6F
$GPGSA,A,3,23,20,10,24,18,32,15,21,27,,,,2.62,1.58,2.09*0D
$PFLAU,2,1,2,1,0,0,2,0,2147483647*6A
$PGRMZ,128,f,3*10
$GPRMC,200326.00,A,4515.85224,N,07549.02879,W,0.450,,031020,,,A*61
$GPGGA,200326.00,4515.85224,N,07549.02879,W,1,09,1.58,109.0,M,-34.3,M,,*68
$GPGSA,A,3,23,20,10,24,18,32,15,21,27,,,,2.62,1.58,2.09*0D
$PFLAU,2,1,2,1,0,0,2,0,2147483647*6A
$PGRMZ,126,f,3*1E
$GPRMC,200327.00,A,4515.85218,N,07549.02878,W,0.744,,031020,,,A*68
$GPGGA,200327.00,4515.85218,N,07549.02878,W,1,09,1.58,108.7,M,-34.3,M,,*61
$GPGSA,A,3,23,20,10,24,18,32,15,21,27,,,,2.62,1.58,2.09*0D
$PFLAU,2,1,2,1,0,0,2,0,2147483647*6A
$PGRMZ,127,f,3*1F
$GPRMC,200328.00,A,4515.85209,N,07549.02886,W,0.519,,031020,,,A*6C
$GPGGA,200328.00,4515.85209,N,07549.02886,W,1,08,1.58,108.8,M,-34.3,M,,*61
$GPGSA,A,3,23,20,10,24,18,32,21,27,,,,,2.62,1.58,2.09*09
$PFLAU,2,1,2,1,0,0,2,0,2147483647*6A
$PGRMZ,127,f,3*1F
$GPRMC,200329.00,A,4515.85209,N,07549.02888,W,0.697,,031020,,,A*66
$GPGGA,200329.00,4515.85209,N,07549.02888,W,1,09,1.58,109.0,M,-34.3,M,,*66
$GPGSA,A,3,23,20,10,24,18,32,15,21,27,,,,2.62,1.58,2.09*0D
$PFLAU,1,1,2,1,0,0,2,0,2147483647*69
$PGRMZ,128,f,3*10
$GPRMC,200330.00,A,4515.85228,N,07549.02842,W,2.359,59.87,031020,,,A*43
$GPGGA,200330.00,4515.85228,N,07549.02842,W,1,09,1.58,108.3,M,-34.3,M,,*69
$GPGSA,A,3,23,20,10,24,18,32,15,21,27,,,,2.62,1.58,2.09*0D
$PFLAU,0,1,2,1,0,0,2,0,2147483647*68
$PGRMZ,130,f,3*19
$GPRMC,200331.00,A,4515.85239,N,07549.02818,W,0.413,,031020,,,A*6B
$GPGGA,200331.00,4515.85239,N,07549.02818,W,1,09,1.58,108.1,M,-34.3,M,,*65
$GPGSA,A,3,23,20,10,24,18,32,15,21,27,,,,2.62,1.58,2.09*0D
$PFLAU,0,1,2,1,0,0,2,0,2147483647*68
$PGRMZ,127,f,3*1F
$GPRMC,200332.00,A,4515.85246,N,07549.02817,W,0.270,,031020,,,A*6C
$GPGGA,200332.00,4515.85246,N,07549.02817,W,1,09,1.58,108.2,M,-34.3,M,,*62
$GPGSA,A,3,23,20,10,24,18,32,15,21,27,,,,2.62,1.58,2.09*0D
$PFLAU,0,1,2,1,0,0,2,0,2147483647*68
$PGRMZ,128,f,3*10
$GPRMC,200333.00,A,4515.85246,N,07549.02828,W,1.025,,031020,,,A*62
$GPGGA,200333.00,4515.85246,N,07549.02828,W,1,09,1.58,108.5,M,-34.3,M,,*68
$GPGSA,A,3,23,20,10,24,18,32,15,21,27,,,,2.62,1.58,2.08*0C
$PFLAU,1,1,2,1,0,0,2,0,2147483647*69
$PGRMZ,128,f,3*10
$GPRMC,200334.00,A,4515.85251,N,07549.02818,W,0.567,,031020,,,A*62
$GPGGA,200334.00,4515.85251,N,07549.02818,W,1,09,1.58,108.4,M,-34.3,M,,*6B
$GPGSA,A,3,23,20,10,24,18,32,15,21,27,,,,2.62,1.58,2.08*0C
$PFLAU,1,1,2,1,0,0,2,0,2147483647*69
$PGRMZ,129,f,3*11
$GPRMC,200335.00,A,4515.85262,N,07549.02794,W,0.063,,031020,,,A*69
$GPGGA,200335.00,4515.85262,N,07549.02794,W,1,09,1.58,108.1,M,-34.3,M,,*64
$GPGSA,A,3,23,20,10,24,18,32,15,21,27,,,,2.62,1.58,2.08*0C
$PFLAU,2,1,2,1,0,0,2,0,2147483647*6A
$PGRMZ,128,f,3*10
$GPRMC,200336.00,A,4515.85257,N,07549.02789,W,0.722,,031020,,,A*62
$GPGGA,200336.00,4515.85257,N,07549.02789,W,1,09,1.58,108.0,M,-34.3,M,,*6C
$GPGSA,A,3,23,20,10,24,18,32,15,21,27,,,,2.62,1.58,2.08*0C
$PFLAU,3,1,2,1,0,0,2,0,2147483647*6B
$PGRMZ,129,f,3*11
$GPRMC,200337.00,A,4515.85264,N,07549.02778,W,0.931,,031020,,,A*61
$GPGGA,200337.00,4515.85264,N,07549.02778,W,1,09,1.58,107.8,M,-34.3,M,,*64
$GPGSA,A,3,23,20,10,24,18,32,15,21,27,,,,2.62,1.58,2.08*0C
$PFLAU,3,1,2,1,0,0,2,0,2147483647*6B
$PGRMZ,128,f,3*10
$GPRMC,200338.00,A,4515.85277,N,07549.02762,W,0.135,,031020,,,A*6B
$GPGGA,200338.00,4515.85277,N,07549.02762,W,1,09,1.58,107.5,M,-34.3,M,,*6F
$GPGSA,A,3,23,20,10,24,18,32,15,21,27,,,,2.62,1.58,2.08*0C
$PFLAU,3,1,2,1,0,0,2,0,2147483647*6B
$PGRMZ,128,f,3*10
$GPRMC,200339.00,A,4515.85278,N,07549.02758,W,0.538,,031020,,,A*65
$GPGGA,200339.00,4515.85278,N,07549.02758,W,1,09,1.58,107.5,M,-34.3,M,,*68
$GPGSA,A,3,23,20,10,24,18,32,15,21,27,,,,2.62,1.58,2.08*0C
$PFLAU,2,1,2,1,0,0,2,0,2147483647*6A
