$GPRMC,195211.00,A,4515.88657,N,07549.04171,W,1.864,,031020,,,A*6B
$GPGGA,195211.00,4515.88657,N,07549.04171,W,1,06,2.54,98.8,M,-34.3,M,,*59
$GPGSA,A,3,23,24,20,32,18,10,,,,,,,5.04,2.54,4.36*0D
$PFLAU,0,1,2,1,0,0,2,0,2147483647*68
$PGRMZ,111,f,3*1A
$GPRMC,195212.00,A,4515.88652,N,07549.04185,W,0.932,,031020,,,A*65
$GPGGA,195212.00,4515.88652,N,07549.04185,W,1,06,2.54,99.0,M,-34.3,M,,*5D
$GPGSA,A,3,23,24,20,32,18,10,,,,,,,5.04,2.54,4.36*0D
$PFLAU,0,1,2,1,0,0,2,0,2147483647*68
$PGRMZ,110,f,3*1B
$GPRMC,195213.00,A,4515.88680,N,07549.04148,W,0.265,,031020,,,A*63
$GPGGA,195213.00,4515.88680,N,07549.04148,W,1,06,2.54,98.0,M,-34.3,M,,*53
$GPGSA,A,3,23,24,20,32,18,10,,,,,,,5.04,2.54,4.36*0D
$PFLAU,0,1,2,1,0,0,2,0,2147483647*68
$PGRMZ,111,f,3*1A
$GPRMC,195214.00,A,4515.88715,N,07549.04124,W,0.737,,031020,,,A*61
$GPGGA,195214.00,4515.88715,N,07549.04124,W,1,06,2.54,97.4,M,-34.3,M,,*58
$GPGSA,A,3,23,24,20,32,18,10,,,,,,,5.04,2.54,4.36*0D
$PFLAU,0,1,2,1,0,0,2,0,2147483647*68
$PGRMZ,112,f,3*19
$GPRMC,195215.00,A,4515.88739,N,07549.04111,W,0.684,,031020,,,A*61
$GPGGA,195215.00,4515.88739,N,07549.04111,W,1,06,2.54,97.1,M,-34.3,M,,*54
$GPGSA,A,3,23,24,20,32,18,10,,,,,,,5.04,2.54,4.36*0D
$PFLAU,0,1,2,1,0,0,2,0,2147483647*68
$PGRMZ,111,f,3*1A
$GPRMC,195216.00,A,4515.88767,N,07549.04092,W,0.222,,031020,,,A*6B
$GPGGA,195216.00,4515.88767,N,07549.04092,W,1,06,2.54,96.5,M,-34.3,M,,*53
$GPGSA,A,3,23,24,20,32,18,10,,,,,,,5.04,2.54,4.36*0D
$PFLAU,0,1,2,1,0,0,2,0,2147483647*68
$PGRMZ,111,f,3*1A
$GPRMC,195217.00,A,4515.88777,N,07549.04078,W,0.457,,031020,,,D*6E
$GPGGA,195217.00,4515.88777,N,07549.04078,W,2,06,2.54,96.4,M,-34.3,M,,0000*55
$GPGSA,A,3,23,24,20,32,18,10,,,,,,,5.04,2.54,4.36*0D
$PFLAU,0,1,2,1,0,0,2,0,2147483647*68
$PGRMZ,111,f,3*1A
$GPRMC,195218.00,A,4515.88799,N,07549.04051,W,0.230,,031020,,,D*6D
$GPGGA,195218.00,4515.88799,N,07549.04051,W,2,06,2.54,95.8,M,-34.3,M,,0000*5E
$GPGSA,A,3,23,24,20,32,18,10,,,,,,,5.04,2.54,4.35*0E
$PFLAU,0,1,2,1,0,0,2,0,2147483647*68
$PGRMZ,114,f,3*1F
$GPRMC,195219.00,A,4515.88820,N,07549.04042,W,0.357,,031020,,,D*63
$GPGGA,195219.00,4515.88820,N,07549.04042,W,2,06,2.54,95.4,M,-34.3,M,,0000*5C
$GPGSA,A,3,23,24,20,32,18,10,,,,,,,5.04,2.54,4.35*0E
$PFLAU,0,1,2,1,0,0,2,0,2147483647*68
$PGRMZ,110,f,3*1B
$GPRMC,195220.00,A,4515.88840,N,07549.04043,W,0.232,,031020,,,D*6C
$GPGGA,195220.00,4515.88840,N,07549.04043,W,2,06,2.54,95.4,M,-34.3,M,,0000*51
$GPGSA,A,3,23,24,20,32,18,10,,,,,,,5.04,2.54,4.35*0E
$PFLAU,0,1,2,1,0,0,2,0,2147483647*68
$PGRMZ,111,f,3*1A
$GPRMC,195221.00,A,4515.88855,N,07549.04041,W,0.034,,031020,,,D*6F
$GPGGA,195221.00,4515.88855,N,07549.04041,W,2,06,2.54,95.4,M,-34.3,M,,0000*56
$GPGSA,A,3,23,24,20,32,18,10,,,,,,,5.04,2.54,4.35*0E
$PFLAU,0,1,2,1,0,0,2,0,2147483647*68
$PGRMZ,111,f,3*1A
$GPRMC,195222.00,A,4515.88855,N,07549.04057,W,0.742,,031020,,,D*6D
$GPGGA,195222.00,4515.88855,N,07549.04057,W,2,06,2.54,95.8,M,-34.3,M,,0000*5E
$GPGSA,A,3,23,24,20,32,18,10,,,,,,,5.04,2.54,4.35*0E
$PFLAU,0,1,2,1,0,0,2,0,2147483647*68
$PGRMZ,112,f,3*19
$GPRMC,195223.00,A,4515.88872,N,07549.04064,W,0.027,,031020,,,D*6D
$GPGGA,195223.00,4515.88872,N,07549.04064,W,2,06,2.54,95.6,M,-34.3,M,,0000*54
$GPGSA,A,3,23,24,20,32,18,10,,,,,,,5.04,2.54,4.35*0E
$PFLAU,0,1,2,1,0,0,2,0,2147483647*68
$PGRMZ,113,f,3*18
$GPRMC,195224.00,A,4515.88864,N,07549.04089,W,1.193,218.04,031020,,,D*70
$GPGGA,195224.00,4515.88864,N,07549.04089,W,2,06,2.54,96.3,M,-34.3,M,,0000*51
$GPGSA,A,3,23,24,20,32,18,10,,,,,,,5.04,2.54,4.35*0E
$PFLAU,0,1,2,1,0,0,2,0,2147483647*68
$PGRMZ,112,f,3*19
$GPRMC,195225.00,A,4515.88863,N,07549.04102,W,0.023,,031020,,,D*6E
$GPGGA,195225.00,4515.88863,N,07549.04102,W,2,06,2.54,96.7,M,-34.3,M,,0000*51
$GPGSA,A,3,23,24,20,32,18,10,,,,,,,5.04,2.54,4.35*0E
$PFLAU,0,1,2,1,0,0,2,0,2147483647*68
$PGRMZ,113,f,3*18
$GPRMC,195226.00,A,4515.88873,N,07549.04110,W,0.388,,031020,,,D*6D
$GPGGA,195226.00,4515.88873,N,07549.04110,W,2,06,2.53,96.9,M,-34.3,M,,0000*59
$GPGSA,A,3,23,24,20,32,18,10,,,,,,,5.04,2.53,4.35*09
$PFLAU,0,1,2,1,0,0,2,0,2147483647*68
$PGRMZ,111,f,3*1A
$GPRMC,195227.00,A,4515.88884,N,07549.04115,W,0.590,,031020,,,D*6E
$GPGGA,195227.00,4515.88884,N,07549.04115,W,2,06,2.53,96.7,M,-34.3,M,,0000*5B
$GPGSA,A,3,23,24,20,32,18,10,,,,,,,5.04,2.53,4.35*09
$PFLAU,0,1,2,1,0,0,2,0,2147483647*68
$PGRMZ,111,f,3*1A
$GPRMC,195228.00,A,4515.88885,N,07549.04141,W,0.724,,031020,,,D*6C
$GPGGA,195228.00,4515.88885,N,07549.04141,W,2,06,2.53,97.0,M,-34.3,M,,0000*52
$GPGSA,A,3,23,24,20,32,18,10,,,,,,,5.04,2.53,4.35*09
$PFLAU,0,1,2,1,0,0,2,0,2147483647*68
$PGRMZ,109,f,3*13
$GPRMC,195229.00,A,4515.88892,N,07549.04166,W,0.345,,031020,,,D*6D
$GPGGA,195229.00,4515.88892,N,07549.04166,W,2,06,2.53,97.1,M,-34.3,M,,0000*51
$GPGSA,A,3,23,24,20,32,18,10,,,,,,,5.04,2.53,4.35*09
$PFLAU,0,1,2,1,0,0,2,0,2147483647*68
$PGRMZ,111,f,3*1A
$GPRMC,195230.00,A,4515.88885,N,07549.04194,W,0.480,,031020,,,D*60
$GPGGA,195230.00,4515.88885,N,07549.04194,W,2,06,2.53,97.7,M,-34.3,M,,0000*54
$GPGSA,A,3,23,24,20,32,18,10,,,,,,,5.04,2.53,4.35*09
$PFLAU,0,1,2,1,0,0,2,0,2147483647*68
$PGRMZ,113,f,3*18
$GPRMC,195231.00,A,4515.88873,N,07549.04225,W,0.883,,031020,,,D*6E
$GPGGA,195231.00,4515.88873,N,07549.04225,W,2,06,2.53,98.5,M,-34.3,M,,0000*58
$GPGSA,A,3,23,24,20,32,18,10,,,,,,,5.04,2.53,4.35*09
$PFLAU,0,1,2,1,0,0,2,0,2147483647*68
$PGRMZ,112,f,3*19
$GPRMC,195232.00,A,4515.88859,N,07549.04265,W,1.071,,031020,,,D*65
$GPGGA,195232.00,4515.88859,N,07549.04265,W,2,06,2.53,99.4,M,-34.3,M,,0000*57
$GPGSA,A,3,23,24,20,32,18,10,,,,,,,5.03,2.53,4.35*0E
$PFLAU,0,1,2,1,0,0,2,0,2147483647*68
$PGRMZ,111,f,3*1A
$GPRMC,195233.00,A,4515.88851,N,07549.04292,W,0.471,,031020,,,D*61
$GPGGA,195233.00,4515.88851,N,07549.04292,W,2,06,2.53,99.9,M,-34.3,M,,0000*5B
$GPGSA,A,3,23,24,20,32,18,10,,,,,,,5.03,2.53,4.35*0E
$PFLAU,0,1,2,1,0,0,2,0,2147483647*68
$PGRMZ,111,f,3*1A
$GPRMC,195234.00,A,4515.88844,N,07549.04313,W,0.161,,031020,,,D*6E
$GPGGA,195234.00,4515.88844,N,07549.04313,W,2,06,2.53,100.2,M,-34.3,M,,0000*6A
$GPGSA,A,3,23,24,20,32,18,10,,,,,,,5.03,2.53,4.35*0E
$PFLAU,0,1,2,1,0,0,2,0,2147483647*68
$PGRMZ,113,f,3*18
$GPRMC,195235.00,A,4515.88833,N,07549.04340,W,0.860,,031020,,,D*61
$GPGGA,195235.00,4515.88833,N,07549.04340,W,2,06,2.53,100.8,M,-34.3,M,,0000*67
$GPGSA,A,3,23,24,20,32,18,10,,,,,,,5.03,2.53,4.35*0E
$PFLAU,0,1,2,1,0,0,2,0,2147483647*68
$PGRMZ,112,f,3*19
$GPRMC,195236.00,A,4515.88827,N,07549.04364,W,0.668,,031020,,,D*67
$GPGGA,195236.00,4515.88827,N,07549.04364,W,2,06,2.53,101.2,M,-34.3,M,,0000*6C
$GPGSA,A,3,23,24,20,32,18,10,,,,,,,5.03,2.53,4.35*0E
$PFLAU,0,1,2,1,0,0,2,0,2147483647*68
$PGRMZ,111,f,3*1A
$GPRMC,195237.00,A,4515.88820,N,07549.04371,W,0.521,,031020,,,D*6B
$GPGGA,195237.00,4515.88820,N,07549.04371,W,2,06,2.53,101.3,M,-34.3,M,,0000*6F
$GPGSA,A,3,23,24,20,32,18,10,,,,,,,5.03,2.53,4.35*0E
$PFLAU,0,1,2,1,0,0,2,0,2147483647*68
$PGRMZ,113,f,3*18
$GPRMC,195238.00,A,4515.88803,N,07549.04378,W,0.406,,031020,,,D*68
$GPGGA,195238.00,4515.88803,N,07549.04378,W,2,06,2.53,101.8,M,-34.3,M,,0000*63
$GPGSA,A,3,23,24,20,32,18,10,,,,,,,5.03,2.53,4.35*0E
$PFLAU,0,1,2,1,0,0,2,0,2147483647*68
$PGRMZ,112,f,3*19
$GPRMC,195239.00,A,4515.88784,N,07549.04399,W,0.885,,031020,,,D*61
$GPGGA,195239.00,4515.88784,N,07549.04399,W,2,06,2.53,102.5,M,-34.3,M,,0000*63
$GPGSA,A,3,23,24,20,32,18,10,,,,,,,5.03,2.53,4.35*0E
$PFLAU,0,1,2,1,0,0,2,0,2147483647*68
$PGRMZ,112,f,3*19
$GPRMC,195240.00,A,4515.88762,N,07549.04409,W,0.836,,031020,,,D*61
$GPGGA,195240.00,4515.88762,N,07549.04409,W,2,06,2.53,103.2,M,-34.3,M,,0000*6D
$GPGSA,A,3,23,24,20,32,18,10,,,,,,,5.03,2.53,4.35*0E
$PFLAU,0,1,2,1,0,0,2,0,2147483647*68
$PGRMZ,113,f,3*18
$GPRMC,195241.00,A,4515.88744,N,07549.04410,W,0.793,,031020,,,D*6C
$GPGGA,195241.00,4515.88744,N,07549.04410,W,2,07,2.53,103.5,M,-34.3,M,,0000*66
$GPGSA,A,3,23,24,20,32,18,15,10,,,,,,5.03,2.53,4.35*0A
$PFLAU,0,1,2,1,0,0,2,0,2147483647*68
$PGRMZ,111,f,3*1A
$GPRMC,195242.00,A,4515.88735,N,07549.04411,W,0.042,,031020,,,D*63
$GPGGA,195242.00,4515.88735,N,07549.04411,W,2,07,2.53,103.6,M,-34.3,M,,0000*61
$GPGSA,A,3,23,24,20,32,18,15,10,,,,,,5.03,2.53,4.35*0A
$PFLAU,0,1,2,1,0,0,2,0,2147483647*68
$PGRMZ,112,f,3*19
$GPRMC,195243.00,A,4515.88732,N,07549.04414,W,0.447,,031020,,,D*61
$GPGGA,195243.00,4515.88732,N,07549.04414,W,2,07,2.53,103.7,M,-34.3,M,,0000*63
$GPGSA,A,3,23,24,20,32,18,15,10,,,,,,5.03,2.53,4.35*0A
$PFLAU,0,1,2,1,0,0,2,0,2147483647*68
$PGRMZ,112,f,3*19
$GPRMC,195244.00,A,4515.88728,N,07549.04418,W,0.760,,031020,,,D*67
$GPGGA,195244.00,4515.88728,N,07549.04418,W,2,07,2.53,103.8,M,-34.3,M,,0000*6C
$GPGSA,A,3,23,24,20,32,18,15,10,,,,,,5.03,2.53,4.35*0A
$PFLAU,0,1,2,1,0,0,2,0,2147483647*68
$PGRMZ,114,f,3*1F
$GPRMC,195245.00,A,4515.88719,N,07549.04424,W,0.948,,031020,,,D*6F
$GPGGA,195245.00,4515.88719,N,07549.04424,W,2,07,2.53,104.1,M,-34.3,M,,0000*6E
$GPGSA,A,3,23,24,20,32,18,15,10,,,,,,5.03,2.53,4.35*0A
$PFLAU,0,1,2,1,0,0,2,0,2147483647*68
$PGRMZ,112,f,3*19
$GPRMC,195246.00,A,4515.88708,N,07549.04428,W,0.326,,031020,,,D*62
$GPGGA,195246.00,4515.88708,N,07549.04428,W,2,07,2.53,104.2,M,-34.3,M,,0000*62
$GPGSA,A,3,23,24,20,32,18,15,10,,,,,,5.03,2.53,4.35*0A
$PFLAU,0,1,2,1,0,0,2,0,2147483647*68
$PGRMZ,112,f,3*19
$GPRMC,195247.00,A,4515.88712,N,07549.04425,W,0.415,,031020,,,D*62
$GPGGA,195247.00,4515.88712,N,07549.04425,W,2,07,2.53,103.8,M,-34.3,M,,0000*68
$GPGSA,A,3,23,24,20,32,18,15,10,,,,,,5.03,2.53,4.35*0A
$PFLAU,0,1,2,1,0,0,2,0,2147483647*68
$PGRMZ,113,f,3*18
$GPRMC,195248.00,A,4515.88738,N,07549.04401,W,0.190,,031020,,,D*6B
$GPGGA,195248.00,4515.88738,N,07549.04401,W,2,06,2.53,103.0,M,-34.3,M,,0000*60
$GPGSA,A,3,23,24,20,32,18,10,,,,,,,5.03,2.53,4.35*0E
$PFLAU,0,1,2,1,0,0,2,0,2147483647*68
$PGRMZ,111,f,3*1A
$GPRMC,195249.00,A,4515.88764,N,07549.04380,W,0.541,,031020,,,D*65
$GPGGA,195249.00,4515.88764,N,07549.04380,W,2,06,2.53,102.3,M,-34.3,M,,0000*64
$GPGSA,A,3,23,24,20,32,18,10,,,,,,,5.03,2.53,4.35*0E
$PFLAU,0,1,2,1,0,0,2,0,2147483647*68
$PGRMZ,111,f,3*1A
$GPRMC,195250.00,A,4515.88782,N,07549.04356,W,0.714,,031020,,,D*6C
$GPGGA,195250.00,4515.88782,N,07549.04356,W,2,06,2.53,101.6,M,-34.3,M,,0000*69
$GPGSA,A,3,23,24,20,32,18,10,,,,,,,5.03,2.53,4.35*0E
$PFLAU,0,1,2,1,0,0,2,0,2147483647*68
$PGRMZ,113,f,3*18
$GPRMC,195251.00,A,4515.88793,N,07549.04340,W,0.175,,031020,,,D*6B
$GPGGA,195251.00,4515.88793,N,07549.04340,W,2,06,2.53,101.1,M,-34.3,M,,0000*68
$GPGSA,A,3,23,24,20,32,18,10,,,,,,,5.03,2.53,4.34*0F
$PFLAU,0,1,2,1,0,0,2,0,2147483647*68
$PGRMZ,112,f,3*19
$GPRMC,195252.00,A,4515.88810,N,07549.04329,W,0.316,,031020,,,D*64
$GPGGA,195252.00,4515.88810,N,07549.04329,W,2,06,2.53,100.9,M,-34.3,M,,0000*69
$GPGSA,A,3,23,24,20,32,18,10,,,,,,,5.03,2.53,4.34*0F
$PFLAU,0,1,2,1,0,0,2,0,2147483647*68
$PGRMZ,112,f,3*19
$GPRMC,195253.00,A,4515.88819,N,07549.04319,W,0.303,,031020,,,D*6B
$GPGGA,195253.00,4515.88819,N,07549.04319,W,2,06,2.53,100.6,M,-34.3,M,,0000*6D
$GPGSA,A,3,23,24,20,32,18,10,,,,,,,5.03,2.53,4.34*0F
$PFLAU,0,1,2,1,0,0,2,0,2147483647*68
$PGRMZ,111,f,3*1A
$GPRMC,195254.00,A,4515.88825,N,07549.04320,W,0.334,,031020,,,D*6D
$GPGGA,195254.00,4515.88825,N,07549.04320,W,2,06,2.53,100.2,M,-34.3,M,,0000*6B
$GPGSA,A,3,23,24,20,32,18,10,,,,,,,5.03,2.53,4.34*0F
$PFLAU,0,1,2,1,0,0,2,0,2147483647*68
$PGRMZ,114,f,3*1F
$GPRMC,195255.00,A,4515.88820,N,07549.04323,W,0.286,,031020,,,D*62
$GPGGA,195255.00,4515.88820,N,07549.04323,W,2,06,2.53,100.0,M,-34.3,M,,0000*6E
$GPGSA,A,3,23,24,20,32,18,10,,,,,,,5.03,2.53,4.34*0F
$PFLAU,0,1,2,1,0,0,2,0,2147483647*68
$PGRMZ,111,f,3*1A
$GPRMC,195256.00,A,4515.88829,N,07549.04318,W,0.256,,031020,,,D*6D
$GPGGA,195256.00,4515.88829,N,07549.04318,W,2,06,2.53,99.4,M,-34.3,M,,0000*59
$GPGSA,A,3,23,24,20,32,18,10,,,,,,,5.03,2.53,4.34*0F
$PFLAU,0,1,2,1,0,0,2,0,2147483647*68
$PGRMZ,113,f,3*18
$GPRMC,195257.00,A,4515.88824,N,07549.04340,W,0.560,,031020,,,D*6E
$GPGGA,195257.00,4515.88824,N,07549.04340,W,2,07,2.53,99.5,M,-34.3,M,,0000*58
$GPGSA,A,3,23,24,20,32,18,15,10,,,,,,5.02,2.53,4.34*0A
$PFLAU,0,1,2,1,0,0,2,0,2147483647*68
$PGRMZ,112,f,3*19
$GPRMC,195258.00,A,4515.88833,N,07549.04348,W,0.301,,031020,,,D*6E
$GPGGA,195258.00,4515.88833,N,07549.04348,W,2,06,2.53,99.5,M,-34.3,M,,0000*58
$GPGSA,A,3,23,24,20,32,18,10,,,,,,,5.02,2.53,4.34*0E
$PFLAU,0,1,2,1,0,0,2,0,2147483647*68
$PGRMZ,113,f,3*18
$GPRMC,195259.00,A,4515.88839,N,07549.04367,W,0.051,,031020,,,D*6E
$GPGGA,195259.00,4515.88839,N,07549.04367,W,2,06,2.53,99.6,M,-34.3,M,,0000*5D
$GPGSA,A,3,23,24,20,32,18,10,,,,,,,5.02,2.53,4.34*0E
$PFLAU,0,1,2,1,0,0,2,0,2147483647*68
$PGRMZ,111,f,3*1A
$GPRMC,195300.00,A,4515.88833,N,07549.04392,W,0.020,,031020,,,D*65
$GPGGA,195300.00,4515.88833,N,07549.04392,W,2,06,2.53,99.9,M,-34.3,M,,0000*5F
$GPGSA,A,3,23,24,20,32,18,10,,,,,,,5.02,2.53,4.34*0E
$PFLAU,0,1,2,1,0,0,2,0,2147483647*68
$PGRMZ,113,f,3*18
$GPRMC,195301.00,A,4515.88821,N,07549.04413,W,0.435,,031020,,,D*69
$GPGGA,195301.00,4515.88821,N,07549.04413,W,2,06,2.53,100.3,M,-34.3,M,,0000*68
$GPGSA,A,3,23,24,20,32,18,10,,,,,,,5.02,2.53,4.34*0E
$PFLAU,0,1,2,1,0,0,2,0,2147483647*68
$PGRMZ,111,f,3*1A
$GPRMC,195302.00,A,4515.88813,N,07549.04431,W,0.521,,031020,,,D*6F
$GPGGA,195302.00,4515.88813,N,07549.04431,W,2,06,2.53,100.5,M,-34.3,M,,0000*6C
$GPGSA,A,3,23,24,20,32,18,10,,,,,,,5.02,2.53,4.34*0E
$PFLAU,0,1,2,1,0,0,2,0,2147483647*68
$PGRMZ,111,f,3*1A
$GPRMC,195303.00,A,4515.88790,N,07549.04455,W,0.817,,031020,,,D*60
$GPGGA,195303.00,4515.88790,N,07549.04455,W,2,06,2.53,101.2,M,-34.3,M,,0000*6D
$GPGSA,A,3,23,24,20,32,18,10,,,,,,,5.02,2.53,4.34*0E
$PFLAU,0,1,2,1,0,0,2,0,2147483647*68
$PGRMZ,115,f,3*1E
$GPRMC,195304.00,A,4515.88775,N,07549.04477,W,0.310,,031020,,,D*60
$GPGGA,195304.00,4515.88775,N,07549.04477,W,2,06,2.53,101.8,M,-34.3,M,,0000*6B
$GPGSA,A,3,23,24,20,32,18,10,,,,,,,5.02,2.53,4.34*0E
$PFLAU,0,1,2,1,0,0,2,0,2147483647*68
$PGRMZ,111,f,3*1A
$GPRMC,195305.00,A,4515.88760,N,07549.04506,W,0.673,,031020,,,D*62
$GPGGA,195305.00,4515.88760,N,07549.04506,W,2,06,2.53,102.4,M,-34.3,M,,0000*66
$GPGSA,A,3,23,24,20,32,18,10,,,,,,,5.02,2.53,4.34*0E
$PFLAU,0,1,2,1,0,0,2,0,2147483647*68
$PGRMZ,111,f,3*1A
$GPRMC,195306.00,A,4515.88741,N,07549.04536,W,1.036,,031020,,,D*67
$GPGGA,195306.00,4515.88741,N,07549.04536,W,2,06,2.53,103.2,M,-34.3,M,,0000*62
$GPGSA,A,3,23,24,20,32,18,10,,,,,,,5.02,2.53,4.34*0E
$PFLAU,0,1,2,1,0,0,2,0,2147483647*68
$PGRMZ,112,f,3*19
$GPRMC,195307.00,A,4515.88728,N,07549.04560,W,0.397,,031020,,,D*63
$GPGGA,195307.00,4515.88728,N,07549.04560,W,2,07,2.53,104.0,M,-34.3,M,,0000*6B
$GPGSA,A,3,23,24,20,32,18,15,10,,,,,,5.02,2.53,4.34*0A
$PFLAU,0,1,2,1,0,0,2,0,2147483647*68
$PGRMZ,113,f,3*18
$GPRMC,195308.00,A,4515.88729,N,07549.04568,W,0.067,,031020,,,D*69
$GPGGA,195308.00,4515.88729,N,07549.04568,W,2,06,2.52,104.3,M,-34.3,M,,0000*6E
$GPGSA,A,3,23,24,20,32,18,10,,,,,,,5.02,2.52,4.34*0F
$PFLAU,0,1,2,1,0,0,2,0,2147483647*68
$PGRMZ,112,f,3*19
$GPRMC,195309.00,A,4515.88728,N,07549.04579,W,0.244,,031020,,,D*6A
$GPGGA,195309.00,4515.88728,N,07549.04579,W,2,07,2.52,104.5,M,-34.3,M,,0000*69
$GPGSA,A,3,23,24,20,32,18,15,10,,,,,,5.02,2.52,4.34*0B
$PFLAU,0,1,2,1,0,0,2,0,2147483647*68
$PGRMZ,112,f,3*19
$GPRMC,195310.00,A,4515.88715,N,07549.04604,W,1.068,,031020,,,D*68
$GPGGA,195310.00,4515.88715,N,07549.04604,W,2,07,2.52,105.3,M,-34.3,M,,0000*61
$GPGSA,A,3,23,24,20,32,18,15,10,,,,,,5.02,2.52,4.34*0B
$PFLAU,0,1,2,1,0,0,2,0,2147483647*68
$PGRMZ,111,f,3*1A
$GPRMC,195311.00,A,4515.88709,N,07549.04623,W,0.589,,031020,,,D*6A
$GPGGA,195311.00,4515.88709,N,07549.04623,W,2,06,2.52,105.7,M,-34.3,M,,0000*6D
$GPGSA,A,3,23,24,20,32,18,10,,,,,,,5.02,2.52,4.34*0F
$PFLAU,0,1,2,1,0,0,2,0,2147483647*68
$PGRMZ,110,f,3*1B
$GPRMC,195312.00,A,4515.88703,N,07549.04634,W,0.259,,031020,,,D*6F
$GPGGA,195312.00,4515.88703,N,07549.04634,W,2,06,2.52,106.0,M,-34.3,M,,0000*66
$GPGSA,A,3,23,24,20,32,18,10,,,,,,,5.02,2.52,4.34*0F
$PFLAU,0,1,2,1,0,0,2,0,2147483647*68
$PGRMZ,111,f,3*1A
$GPRMC,195313.00,A,4515.88705,N,07549.04631,W,0.099,,031020,,,D*63
$GPGGA,195313.00,4515.88705,N,07549.04631,W,2,06,2.52,106.0,M,-34.3,M,,0000*64
$GPGSA,A,3,23,24,20,32,18,10,,,,,,,5.02,2.52,4.34*0F
$PFLAU,0,1,2,1,0,0,2,0,2147483647*68
$PGRMZ,111,f,3*1A
$GPRMC,195314.00,A,4515.88703,N,07549.04627,W,0.578,,031020,,,D*6F
$GPGGA,195314.00,4515.88703,N,07549.04627,W,2,06,2.52,106.2,M,-34.3,M,,0000*60
$GPGSA,A,3,23,24,20,32,18,10,,,,,,,5.02,2.52,4.34*0F
$PFLAU,0,1,2,1,0,0,2,0,2147483647*68
$PGRMZ,111,f,3*1A
$GPRMC,195315.00,A,4515.88695,N,07549.04626,W,0.774,,031020,,,D*6F
$GPGGA,195315.00,4515.88695,N,07549.04626,W,2,06,2.52,106.3,M,-34.3,M,,0000*6F
$GPGSA