$GPRMC,153143.00,V,,,,,,,241020,,,N*79
$GPGGA,153143.00,0000.0000,N,00000.0000,E,0,00,100.0,0.0,M,0.0,M,,*5D
$GPGSA,A,1,,,,,,,,,,,,,99.99,99.99,99.99*30
$PGRMZ,137,f,3*1E
$GPRMC,153144.00,V,,,,,,,241020,,,N*7E
$GPGGA,153144.00,0000.0000,N,00000.0000,E,0,00,100.0,0.0,M,0.0,M,,*5A
$GPGSA,A,1,,,,,,,,,,,,,99.99,99.99,99.99*30
$PGRMZ,139,f,3*10
$GPRMC,153145.00,V,,,,,,,241020,,,N*7F
$GPGGA,153145.00,0000.0000,N,00000.0000,E,0,00,100.0,0.0,M,0.0,M,,*5B
$GPGSA,A,1,,,,,,,,,,,,,99.99,99.99,99.99*30
$PGRMZ,136,f,3*1F
$GPRMC,153146.00,V,,,,,,,241020,,,N*7C
$GPGGA,153146.00,0000.0000,N,00000.0000,E,0,00,100.0,0.0,M,0.0,M,,*58
$GPGSA,A,1,,,,,,,,,,,,,99.99,99.99,99.99*30
$PGRMZ,134,f,3*1D
$GPRMC,153147.00,V,,,,,,,241020,,,N*7D
$GPGGA,153147.00,0000.0000,N,00000.0000,E,0,00,100.0,0.0,M,0.0,M,,*59
$GPGSA,A,1,,,,,,,,,,,,,99.99,99.99,99.99*30
$PGRMZ,136,f,3*1F
$GPRMC,153148.00,V,,,,,,,241020,,,N*72
$GPGGA,153148.00,0000.0000,N,00000.0000,E,0,00,100.0,0.0,M,0.0,M,,*56
$GPGSA,A,1,,,,,,,,,,,,,99.99,99.99,99.99*30
$PGRMZ,135,f,3*1C
$GPRMC,153148.99,V,,,,,,,241020,,,N*72
$GPGGA,153148.99,0000.0000,N,00000.0000,E,0,00,100.0,0.0,M,0.0,M,,*56
$GPGSA,A,1,,,,,,,,,,,,,99.99,99.99,99.99*30
$PGRMZ,134,f,3*1D
$GPRMC,153150.00,V,,,,,,,241020,,,N*7B
$GPGGA,153150.00,0000.0000,N,00000.0000,E,0,00,100.0,0.0,M,0.0,M,,*5F
$GPGSA,A,1,,,,,,,,,,,,,99.99,99.99,99.99*30
$PGRMZ,137,f,3*1E
$GPRMC,153151.00,V,,,,,,,241020,,,N*7A
$GPGGA,153151.00,0000.0000,N,00000.0000,E,0,00,100.0,0.0,M,0.0,M,,*5E
$GPGSA,A,1,,,,,,,,,,,,,99.99,99.99,99.99*30
$PGRMZ,137,f,3*1E
$GPRMC,153151.99,V,,,,,,,241020,,,N*7A
$GPGGA,153151.99,0000.0000,N,00000.0000,E,0,00,100.0,0.0,M,0.0,M,,*5E
$GPGSA,A,1,,,,,,,,,,,,,99.99,99.99,99.99*30
$PGRMZ,136,f,3*1F
$GPRMC,153153.00,V,,,,,,,241020,,,N*78
$GPGGA,153153.00,0000.0000,N,00000.0000,E,0,00,100.0,0.0,M,0.0,M,,*5C
$GPGSA,A,1,,,,,,,,,,,,,99.99,99.99,99.99*30
$PGRMZ,135,f,3*1C
$GPRMC,153154.00,A,4506.30424,N,07537.44162,W,1.557,,241020,,,A*63
$GPGGA,153154.00,4506.30424,N,07537.44162,W,1,04,6.97,59.3,M,-34.1,M,,*54
$GPGSA,A,3,05,02,13,15,,,,,,,,,10.24,6.97,7.50*3E
$PFLAU,0,1,2,1,0,0,2,0,2147483647*68
$PGRMZ,136,f,3*1F
$GPRMC,153155.00,A,4506.30436,N,07537.44229,W,0.893,,241020,,,A*69
$GPGGA,153155.00,4506.30436,N,07537.44229,W,1,05,6.97,59.6,M,-34.1,M,,*5E
$GPGSA,A,3,18,05,02,13,15,,,,,,,,10.24,6.97,7.50*37
$PFLAA,3,-18,3,29,1,C04E3F!FLR_C04E3F,0,,0,-0.2,2*7D
$PFLAU,1,1,2,1,3,168,2,29,18*5D
$PGRMZ,134,f,3*1D
$GPRMC,153156.00,A,4506.30157,N,07537.43740,W,1.616,,241020,,,A*67
$GPGGA,153156.00,4506.30157,N,07537.43740,W,1,05,1.68,67.5,M,-34.1,M,,*5B
$GPGSA,A,3,18,05,02,13,15,,,,,,,,2.87,1.68,2.33*0A
$PFLAA,3,-18,4,22,1,C04E3F!FLR_C04E3F,180,,0,-0.2,2*78
$PFLAU,1,1,2,1,3,165,2,22,18*5B
$PGRMZ,136,f,3*1F
$GPRMC,153157.00,A,4506.29885,N,07537.43190,W,1.749,329.63,241020,,,A*7B
$GPGGA,153157.00,4506.29885,N,07537.43190,W,1,05,1.68,77.1,M,-34.1,M,,*5A
$GPGSA,A,3,18,05,02,13,15,,,,,,,,2.87,1.68,2.33*0A
$PFLAA,3,-13,-1,13,1,C04E3F!FLR_C04E3F,0,,0,-0.3,2*51
$PFLAU,1,1,2,1,3,-173,2,13,13*78
$PGRMZ,135,f,3*1C
$GPRMC,153158.00,A,4506.29870,N,07537.43088,W,1.260,,241020,,,A*6B
$GPGGA,153158.00,4506.29870,N,07537.43088,W,1,05,1.68,79.1,M,-34.1,M,,*59
$GPGSA,A,3,18,05,02,13,15,,,,,,,,2.87,1.68,2.33*0A
$PFLAA,3,-9,-9,12,1,C04E3F!FLR_C04E3F,180,,0,-0.4,2*6D
$PFLAU,1,1,2,1,3,-135,2,12,13*7B
$PGRMZ,134,f,3*1D
$GPRMC,153159.00,A,4506.29851,N,07537.43020,W,0.326,,241020,,,A*69
$GPGGA,153159.00,4506.29851,N,07537.43020,W,1,05,1.68,80.3,M,-34.1,M,,*5D
$GPGSA,A,3,18,05,02,13,15,,,,,,,,2.87,1.68,2.33*0A
$PFLAA,3,-7,-10,10,1,C04E3F!FLR_C04E3F,0,,0,-0.3,2*57
$PFLAU,1,1,2,1,3,-126,2,10,13*7B
$PGRMZ,133,f,3*1A
$GPRMC,153200.00,A,4506.29817,N,07537.42972,W,1.561,,241020,,,A*6F
$GPGGA,153200.00,4506.29817,N,07537.42972,W,1,05,1.68,81.5,M,-34.1,M,,*58
$GPGSA,A,3,18,05,02,13,15,,,,,,,,2.87,1.68,2.33*0A
$PFLAA,3,-6,-12,9,1,C04E3F!FLR_C04E3F,0,,0,-0.4,2*6B
$PFLAU,1,1,2,1,3,-119,2,9,14*48
$PGRMZ,135,f,3*1C
$GPRMC,153201.00,A,4506.29815,N,07537.42961,W,1.719,312.71,241020,,,A*7B
$GPGGA,153201.00,4506.29815,N,07537.42961,W,1,05,1.68,82.3,M,-34.1,M,,*5C
$GPGSA,A,3,18,05,02,13,15,,,,,,,,2.87,1.68,2.33*0A
$PFLAU,1,1,2,1,0,0,2,0,2147483647*69
$PGRMZ,134,f,3*1D
$GPRMC,153202.00,A,4506.29868,N,07537.43068,W,2.094,308.78,241020,,,A*70
$GPGGA,153202.00,4506.29868,N,07537.43068,W,1,05,1.68,80.3,M,-34.1,M,,*56
$GPGSA,A,3,18,05,02,13,15,,,,,,,,2.87,1.68,2.33*0A
$PFLAA,3,-6,-12,9,1,C04E3F!FLR_C04E3F,0,,0,-0.5,2*6A
$PFLAU,1,1,2,1,3,-119,2,9,14*48
$PGRMZ,135,f,3*1C
$GPRMC,153203.00,A,4506.29899,N,07537.43116,W,0.509,,241020,,,A*6E
$GPGGA,153203.00,4506.29899,N,07537.43116,W,1,05,1.68,79.2,M,-34.1,M,,*56
$GPGSA,A,3,18,05,02,13,15,,,,,,,,2.87,1.68,2.33*0A
$PFLAA,3,-8,-10,11,1,C04E3F!FLR_C04E3F,0,,0,-0.3,2*59
$PFLAU,1,1,2,1,3,-130,2,11,13*7D
$PGRMZ,134,f,3*1D
$GPRMC,153204.00,A,4506.29895,N,07537.43075,W,0.635,,241020,,,A*6D
$GPGGA,153204.00,4506.29895,N,07537.43075,W,1,05,1.68,79.7,M,-34.1,M,,*5C
$GPGSA,A,3,18,05,02,13,15,,,,,,,,2.87,1.68,2.33*0A
$PFLAA,3,-8,-11,11,1,C04E3F!FLR_C04E3F,0,,0,-0.4,2*5F
$PFLAU,1,1,2,1,3,-127,2,11,14*7C
$PGRMZ,136,f,3*1F
$GPRMC,153205.00,A,4506.29972,N,07537.43221,W,7.191,302.35,241020,,,A*70
$GPGGA,153205.00,4506.29972,N,07537.43221,W,1,05,1.68,77.1,M,-34.1,M,,*5E
$GPGSA,A,3,18,05,02,13,15,,,,,,,,2.87,1.68,2.33*0A
$PFLAA,3,-8,-11,12,1,C04E3F!FLR_C04E3F,0,,0,-0.5,2*5D
$PFLAU,1,1,2,1,3,-126,2,12,14*7E
$PGRMZ,137,f,3*1E
$GPRMC,153206.00,A,4506.30024,N,07537.43337,W,2.998,302.68,241020,,,A*7B
$GPGGA,153206.00,4506.30024,N,07537.43337,W,1,05,1.68,75.9,M,-34.1,M,,*53
$GPGSA,A,3,18,05,02,13,15,,,,,,,,2.87,1.68,2.33*0A
$PFLAA,3,-11,-8,13,1,C04E3F!FLR_C04E3F,0,,0,-0.7,2*5E
$PFLAU,1,1,2,1,3,-143,2,13,14*7C
$PGRMZ,134,f,3*1D
$GPRMC,153207.00,A,4506.30086,N,07537.43480,W,6.000,302.98,241020,,,A*7A
$GPGGA,153207.00,4506.30086,N,07537.43480,W,1,05,1.68,74.1,M,-34.1,M,,*58
$GPGSA,A,3,18,05,02,13,15,,,,,,,,2.87,1.68,2.33*0A
$PFLAA,3,-13,-6,16,1,C04E3F!FLR_C04E3F,0,,0,-0.4,2*54
$PFLAU,1,1,2,1,3,-154,2,16,14*7F
$PGRMZ,136,f,3*1F
$GPRMC,153208.00,A,4506.30163,N,07537.43663,W,6.787,305.29,241020,,,A*75
$GPGGA,153208.00,4506.30163,N,07537.43663,W,1,05,1.68,71.0,M,-34.1,M,,*56
$GPGSA,A,3,18,05,02,13,15,,,,,,,,2.87,1.68,2.33*0A
$PFLAA,3,-13,-6,18,1,C04E3F!FLR_C04E3F,0,,0,-0.4,2*5A
$PFLAU,1,1,2,1,3,-154,2,18,14*71
$PGRMZ,134,f,3*1D
$GPRMC,153209.00,A,4506.30191,N,07537.43721,W,2.315,306.19,241020,,,A*75
$GPGGA,153209.00,4506.30191,N,07537.43721,W,1,05,1.68,70.1,M,-34.1,M,,*5D
$GPGSA,A,3,18,05,02,13,15,,,,,,,,2.87,1.68,2.33*0A
$PFLAA,3,-14,-4,18,1,C04E3F!FLR_C04E3F,0,,0,-0.6,2*5D
$PFLAU,1,1,2,1,3,-164,2,18,15*73
$PGRMZ,131,f,3*18
$GPRMC,153210.00,A,4506.30170,N,07537.43665,W,0.546,,241020,,,A*62
$GPGGA,153210.00,4506.30170,N,07537.43665,W,1,05,1.68,71.1,M,-34.1,M,,*5A
$GPGSA,A,3,18,05,02,13,15,,,,,,,,2.87,1.68,2.33*0A
$PFLAA,3,-14,-3,17,1,C04E3F!FLR_C04E3F,0,,0,-0.5,2*56
$PFLAU,1,1,2,1,3,-167,2,17,15*7F
$PGRMZ,134,f,3*1D
$GPRMC,153211.00,A,4506.30132,N,07537.43670,W,2.632,298.73,241020,,,A*7A
$GPGGA,153211.00,4506.30132,N,07537.43670,W,1,05,1.68,70.8,M,-34.1,M,,*51
$GPGSA,A,3,18,05,02,13,15,,,,,,,,2.87,1.68,2.33*0A
$PFLAA,3,-14,-4,17,1,C04E3F!FLR_C04E3F,0,,0,-0.5,2*51
$PFLAU,1,1,2,1,3,-164,2,17,14*7D
$PGRMZ,149,f,3*17
$GPRMC,153212.00,A,4506.30044,N,07537.43626,W,1.116,,241020,,,A*61
$GPGGA,153212.00,4506.30044,N,07537.43626,W,1,05,1.68,68.8,M,-34.1,M,,*58
$GPGSA,A,3,18,05,02,13,15,,,,,,,,2.87,1.68,2.33*0A
$PFLAU,1,1,2,1,0,0,2,0,2147483647*69
$PGRMZ,150,f,3*1F
$GPRMC,153213.00,A,4506.29951,N,07537.43485,W,0.127,,241020,,,A*6D
$GPGGA,153213.00,4506.29951,N,07537.43485,W,1,05,1.68,68.7,M,-34.1,M,,*58
$GPGSA,A,3,18,05,02,13,15,,,,,,,,2.87,1.68,2.33*0A
$PFLAA,3,-11,-4,20,1,C04E3F!FLR_C04E3F,0,,0,-0.4,2*51
$PFLAU,1,1,2,1,3,-157,2,20,12*7F
$PGRMZ,150,f,3*1F
$GPRMC,153214.00,A,4506.29911,N,07537.43403,W,0.422,,241020,,,A*60
$GPGGA,153214.00,4506.29911,N,07537.43403,W,1,05,1.68,69.6,M,-34.1,M,,*55
$GPGSA,A,3,18,05,02,13,15,,,,,,,,2.87,1.68,2.33*0A
$PFLAA,3,-9,-6,18,1,C04E3F!FLR_C04E3F,0,,0,-0.6,2*63
$PFLAU,1,1,2,1,3,-145,2,18,11*74
$PGRMZ,147,f,3*19
$GPRMC,153215.00,A,4506.29872,N,07537.43247,W,0.334,,241020,,,A*63
$GPGGA,153215.00,4506.29872,N,07537.43247,W,1,05,1.68,72.5,M,-34.1,M,,*5F
$GPGSA,A,3,18,05,02,13,15,,,,,,,,2.87,1.68,2.33*0A
$PFLAA,3,-8,-9,16,1,C04E3F!FLR_C04E3F,288,,0,-0.6,2*61
$PFLAU,1,1,2,1,3,-132,2,16,12*79
$PGRMZ,135,f,3*1C
$GPRMC,153216.00,A,4506.29807,N,07537.43121,W,0.555,,241020,,,A*60
$GPGGA,153216.00,4506.29807,N,07537.43121,W,1,05,1.68,74.0,M,-34.1,M,,*5E
$GPGSA,A,3,18,05,02,13,15,,,,,,,,2.87,1.68,2.33*0A
$PFLAA,3,-5,-16,16,1,C04E3F!FLR_C04E3F,0,,0,-0.3,2*55
$PFLAU,1,1,2,1,3,-108,2,16,16*74
$PGRMZ,150,f,3*1F
$GPRMC,153217.00,A,4506.29769,N,07537.43035,W,0.467,,241020,,,A*62
$GPGGA,153217.00,4506.29769,N,07537.43035,W,1,05,1.68,75.1,M,-34.1,M,,*5C
$GPGSA,A,3,18,05,02,13,15,,,,,,,,2.87,1.68,2.33*0A
$PFLAA,3,-4,-21,14,1,C04E3F!FLR_C04E3F,180,,1,-0.6,2*5F
$PFLAU,1,1,2,1,3,-102,2,14,21*78
$PGRMZ,150,f,3*1F
$GPRMC,153218.00,A,4506.29751,N,07537.42964,W,0.549,,241020,,,A*67
$GPGGA,153218.00,4506.29751,N,07537.42964,W,1,05,1.68,76.0,M,-34.1,M,,*56
$GPGSA,A,3,18,05,02,13,15,,,,,,,,2.87,1.68,2.33*0A
$PFLAA,3,-4,-21,13,1,C04E3F!FLR_C04E3F,180,,1,-0.6,2*58
$PFLAU,1,1,2,1,3,-102,2,13,21*7F
$PGRMZ,150,f,3*1F
$GPRMC,153219.00,A,4506.29733,N,07537.42950,W,0.273,,241020,,,A*6B
$GPGGA,153219.00,4506.29733,N,07537.42950,W,1,05,1.68,76.2,M,-34.1,M,,*56
$GPGSA,A,3,18,05,02,13,15,,,,,,,,2.87,1.68,2.33*0A
$PFLAA,3,-5,-22,12,1,C04E3F!FLR_C04E3F,194,,1,-0.6,2*5E
$PFLAU,1,1,2,1,3,-103,2,12,23*7D
$PGRMZ,150,f,3*1F
$GPRMC,153220.00,A,4506.29694,N,07537.42888,W,0.535,,241020,,,A*6C
$GPGGA,153220.00,4506.29694,N,07537.42888,W,1,05,1.68,77.0,M,-34.1,M,,*57
$GPGSA,A,3,18,05,02,13,15,,,,,,,,2.87,1.68,2.33*0A
$PFLAA,3,-6,-24,12,1,C04E3F!FLR_C04E3F,255,,1,-0.6,2*55
$PFLAU,1,1,2,1,3,-105,2,12,25*7D
$PGRMZ,150,f,3*1F
$GPRMC,153221.00,A,4506.29679,N,07537.42853,W,0.706,,241020,,,A*6A
$GPGGA,153221.00,4506.29679,N,07537.42853,W,1,05,1.68,77.5,M,-34.1,M,,*56
$GPGSA,A,3,18,05,02,13,15,,,,,,,,2.87,1.68,2.32*0B
$PFLAA,3,-7,-25,11,1,C04E3F!FLR_C04E3F,146,,0,-0.7,2*57
$PFLAU,1,1,2,1,3,-106,2,11,26*7E
$PGRMZ,150,f,3*1F
$GPRMC,153222.00,A,4506.29675,N,07537.42844,W,0.113,,241020,,,A*61
$GPGGA,153222.00,4506.29675,N,07537.42844,W,1,05,1.68,77.4,M,-34.1,M,,*5E
$GPGSA,A,3,18,05,02,13,15,,,,,,,,2.87,1.68,2.32*0B
$PFLAA,3,-8,-25,11,1,C04E3F!FLR_C04E3F,213,,0,-0.8,2*54
$PFLAU,1,1,2,1,3,-109,2,11,27*70
$PGRMZ,148,f,3*16
$GPRMC,153223.00,A,4506.29675,N,07537.42866,W,0.473,,241020,,,A*63
$GPGGA,153223.00,4506.29675,N,07537.42866,W,1,05,1.68,77.4,M,-34.1,M,,*5F
$GPGSA,A,3,18,05,02,13,15,,,,,,,,2.87,1.68,2.32*0B
$PFLAU,1,1,2,1,0,0,2,0,2147483647*69
$PGRMZ,148,f,3*16
$GPRMC,153224.00,A,4506.29686,N,07537.42861,W,0.362,,241020,,,A*68
$GPGGA,153224.00,4506.29686,N,07537.42861,W,1,05,1.68,77.4,M,-34.1,M,,*53
$GPGSA,A,3,18,05,02,13,15,,,,,,,,2.87,1.68,2.32*0B
$PFLAA,3,-9,-26,12,1,C04E3F!FLR_C04E3F,225,,0,-0.5,2*5D
$PFLAU,1,1,2,1,3,-110,2,12,28*74
$PGRMZ,151,f,3*1E
$GPRMC,153225.00,A,4506.29707,N,07537.43049,W,0.279,,241020,,,A*69
$GPGGA,153225.00,4506.29707,N,07537.43049,W,1,06,1.43,74.8,M,-34.1,M,,*5C
$GPGSA,A,3,18,05,02,29,13,15,,,,,,,2.70,1.43,2.30*03
$PFLAA,3,-9,-26,14,1,C04E3F!FLR_C04E3F,0,,0,-0.5,2*5E
$PFLAU,1,1,2,1,3,-110,2,14,28*72
$PGRMZ,152,f,3*1D
$GPRMC,153226.00,A,4506.29702,N,07537.43133,W,0.706,,241020,,,A*6E
$GPGGA,153226.00,4506.29702,N,07537.43133,W,1,06,1.43,73.3,M,-34.1,M,,*5A
$GPGSA,A,3,18,05,02,29,13,15,,,,,,,2.70,1.43,2.30*03
$PFLAA,3,-11,-24,16,1,C04E3F!FLR_C04E3F,180,,0,-0.4,2*6F
$PFLAU,1,1,2,1,3,-116,2,16,27*79
$PGRMZ,153,f,3*1C
$GPRMC,153227.00,A,4506.29680,N,07537.43166,W,0.393,,241020,,,A*6C
$GPGGA,153227.00,4506.29680,N,07537.43166,W,1,06,1.43,72.7,M,-34.1,M,,*55
$GPGSA,A,3,18,05,02,29,13,15,,,,,,,2.70,1.43,2.29*0B
$PFLAA,3,-13,-24,16,1,C04E3F!FLR_C04E3F,206,,0,-0.3,2*67
$PFLAU,1,1,2,1,3,-119,2,16,27*76
$PGRMZ,154,f,3*1B
$GPRMC,153228.00,A,4506.29685,N,07537.43171,W,0.882,,241020,,,A*6B
$GPGGA,153228.00,4506.29685,N,07537.43171,W,1,06,1.43,72.5,M,-34.1,M,,*5B
$GPGSA,A,3,18,05,02,29,13,15,,,,,,,2.70,1.43,2.29*0B
$PFLAA,3,-14,-23,16,1,C04E3F!FLR_C04E3F,0,,0,-0.1,2*61
$PFLAU,1,1,2,1,3,-121,2,16,27*7D
$PGRMZ,152,f,3*1D
$GPRMC,153229.00,A,4506.29699,N,07537.43169,W,0.192,,241020,,,A*66
$GPGGA,153229.00,4506.29699,N,07537.43169,W,1,06,1.43,72.2,M,-34.1,M,,*59
$GPGSA,A,3,18,05,02,29,13,15,,,,,,,2.70,1.43,2.29*0B
$PFLAA,3,-17,-23,17,1,C04E3F!FLR_C04E3F,0,,0,-0.3,2*61
$PFLAU,1,1,2,1,3,-126,2,17,29*75
$PGRMZ,153,f,3*1C
$GPRMC,153230.00,A,4506.29729,N,07537.43156,W,0.102,,241020,,,A*61
$GPGGA,153230.00,4506.29729,N,07537.43156,W,1,06,1.43,72.2,M,-34.1,M,,*57
$GPGSA,A,3,18,05,02,29,13,15,,,,,,,2.70,1.43,2.29*0B
$PFLAA,3,-17,-24,17,1,C04E3F!FLR_C04E3F,0,,0,-0.3,2*66
$PFLAU,1,1,2,1,3,-126,2,17,30*7D
$PGRMZ,154,f,3*1B
$GPRMC,153231.00,A,4506.29737,N,07537.43152,W,0.290,,241020,,,A*63
$GPGGA,153231.00,4506.29737,N,07537.43152,W,1,06,1.43,72.1,M,-34.1,M,,*5E
$GPGSA,A,3,18,05,02,29,13,15,,,,,,,2.70,1.43,2.29*0B
$PFLAA,3,-20,-21,17,1,C04E3F!FLR_C04E3F,0,,0,-0.2,2*66
$PFLAU,1,1,2,1,3,-134,2,17,29*76
$PGRMZ,157,f,3*18
$GPRMC,153232.00,A,4506.29743,N,07537.43162,W,0.722,,241020,,,A*6C
$GPGGA,153232.00,4506.29743,N,07537.43162,W,1,06,1.43,71.6,M,-34.1,M,,*59
$GPGSA,A,3,18,05,02,29,13,15,,,,,,,2.70,1.43,2.29*0B
$PFLAA,3,-21,-20,17,1,C04E3F!FLR_C04E3F,63,,1,0.1,2*7C
$PFLAU,1,1,2,1,3,-137,2,17,29*75
$PGRMZ,159,f,3*16
$GPRMC,153233.00,A,4506.29741,N,07537.43166,W,0.091,,241020,,,A*64
$GPGGA,153233.00,4506.29741,N,07537.43166,W,1,06,1.43,71.4,M,-34.1,M,,*5C
$GPGSA,A,3,18,05,02,29,13,15,,,,,,,2.70,1.43,2.29*0B
$PFLAA,3,-21,-18,17,1,C04E3F!FLR_C04E3F,90,,1,-0.1,2*56
$PFLAU,1,1,2,1,3,-139,2,17,28*7A
$PGRMZ,164,f,3*18
$GPRMC,153234.00,A,4506.29737,N,07537.43152,W,0.381,,241020,,,A*67
$GPGGA,153234.00,4506.29737,N,07537.43152,W,1,06,1.43,71.6,M,-34.1,M,,*5F
$GPGSA,A,3,18,05,02,29,13,15,,,,,,,2.70,1.43,2.29*0B
$PFLAU,1,1,2,1,0,0,2,0,2147483647*69
$PGRMZ,167,f,3*1B
$GPRMC,153235.00,A,4506.29728,N,07537.43130,W,0.411,,241020,,,A*62
$GPGGA,153235.00,4506.29728,N,07537.43130,W,1,06,1.43,72.1,M,-34.1,M,,*50
$GPGSA,A,3,18,05,02,29,13,15,,,,,,,2.70,1.43,2.29*0B
$PFLAA,3,-22,-12,18,1,C04E3F!FLR_C04E3F,59,,1,0.2,2*7B
$PFLAU,1,1,2,1,3,-150,2,18,25*77
$PGRMZ,168,f,3*14
$GPRMC,153236.00,A,4506.29715,N,07537.43105,W,0.463,,241020,,,A*6C
$GPGGA,153236.00,4506.29715,N,07537.43105,W,1,06,1.43,72.7,M,-34.1,M,,*5D
$GPGSA,A,3,18,05,02,29,13,15,,,,,,,2.70,1.43,2.29*0B
$PFLAA,3,-22,-12,17,1,C04E3F!FLR_C04E3F,59,,1,0.2,2*74
$PFLAU,1,1,2,1,3,-150,2,17,25*78
$PGRMZ,172,f,3*1F
$GPRMC,153237.00,A,4506.29713,N,07537.43089,W,0.333,,241020,,,A*6C
$GPGGA,153237.00,4506.29713,N,07537.43089,W,1,06,1.43,72.8,M,-34.1,M,,*50
$GPGSA,A,3,18,05,02,29,13,15,,,,,,,2.70,1.43,2.29*0B
$PFLAA,3,-25,-11,17,1,C04E3F!FLR_C04E3F,68,,1,0.2,2*72
$PFLAU,1,1,2,1,3,-155,2,17,27*7F
$PGRMZ,169,f,3*15
$GPRMC,153238.00,A,4506.29725,N,07537.43075,W,0.593,,241020,,,A*69
$GPGGA,153238.00,4506.29725,N,07537.43075,W,1,06,1.43,72.8,M,-34.1,M,,*59
$GPGSA,A,3,18,05,02,29,13,15,,,,,,,2.70,1.43,2.29*0B
$PFLAA,3,-23,-9,18,1,C04E3F!FLR_C04E3F,59,,1,0.1,2*43
$PFLAU,1,1,2,1,3,-157,2,18,25*70
$PGRMZ,169,f,3*15
$GPRMC,153239.00,A,4506.29732,N,07537.43052,W,0.296,,241020,,,A*69
$GPGGA,153239.00,4506.29732,N,07537.43052,W,1,06,1.43,73.1,M,-34.1,M,,*53
$GPGSA,A,3,18,05,02,29,13,15,,,,,,,2.70,1.43,2.29*0B
$PFLAA,3,-23,-8,18,1,C04E3F!FLR_C04E3F,59,,1,0.1,2*42
$PFLAU,1,1,2,1,3,-159,2,18,25*7E
$PGRMZ,167,f,3*1B
$GPRMC,153240.00,A,4506.29725,N,07537.43028,W,0.101,,241020,,,A*61
$GPGGA,153240.00,4506.29725,N,07537.43028,W,1,06,1.43,73.6,M,-34.1,M,,*51
$GPGSA,A,3,18,05,02,29,13,15,,,,,,,2.70,1.43,2.29*0B
$PFLAA,3,-25,-7,17,1,C04E3F!FLR_C04E3F,71,,1,-0.1,2*63
$PFLAU,1,1,2,1,3,-163,2,17,26*7B
$PGRMZ,164,f,3*18
$GPRMC,153241.00,A,4506.29725,N,07537.43015,W,0.282,,241020,,,A*66
$GPGGA,153241.00,4506.29725,N,07537.43015,W,1,06,1.43,73.9,M,-34.1,M,,*51
$GPGSA,A,3,18,05,02,29,13,15,,,,,,,2.70,1.43,2.29*0B
$PFLAA,3,-26,-4,17,1,C04E3F!FLR_C04E3F,80,,1,-0.2,2*6E
$PFLAU,1,1,2,1,3,-171,2,17,26*78
$PGRMZ,163,f,3*1F
$GPRMC,153242.00,A,4506.29719,N,07537.43001,W,0.192,,241020,,,A*6D
$GPGGA,153242.00,4506.29719,N,07537.43001,W,1,06,1.43,74.3,M,-34.1,M,,*55
$GPGSA,A,3,18,05,02,29,13,15,,,,,,,2.70,1.43,2.29*0B
$PFLAA,3,-26,-4,16,1,C04E3F!FLR_C04E3F,80,,1,-0.2,2*6F
$PFLAU,1,1,2,1,3,-171,2,16,26*79
$PGRMZ,162,f,3*1E
$GPRMC,153243.00,A,4506.29724,N,07537.42986,W,0.389,,241020,,,A*6D
$GPGGA,153243.00,4506.29724,N,07537.42986,W,1,06,1.43,74.5,M,-34.1,M,,*5B
$GPGSA,A,3,18,05,02,29,13,15,,,,,,,2.70,1.43,2.29*0B
$PFLAA,3,-26,-1,16,1,C04E3F!FLR_C04E3F,80,,1,-0.1,2*69
$PFLAU,1,1,2,1,3,-177,2,16,26*7F
$PGRMZ,165,f,3*19
$GPRMC,153244.00,A,4506.29722,N,07537.42971,W,0.017,,241020,,,A*60
$GPGGA,153244.00,4506.29722,N,07537.42971,W,1,06,1.43,74.6,M,-34.1,M,,*51
$GPGSA,A,3,18,05,02,29,13,15,,,,,,,2.70,1.43,2.29*0B
$PFLAA,3,-27,2,16,1,C04E3F!FLR_C04E3F,56,,1,0.3,2*62
$PFLAU,1,1,2,1,3,175,2,16,27*51
$PGRMZ,166,f,3*1A
$GPRMC,153245.00,A,4506.29728,N,07537.42957,W,0.139,,241020,,,A*62
$GPGGA,153245.00,4506.29728,N,07537.42957,W,1,06,1.43,74.8,M,-34.1,M,,*50
$GPGSA,A,3,18,05,02,29,13,15,,,,,,,2.70,1.43,2.29*0B
$PFLAA,3,-27,5,16,1,C04E3F!FLR_C04E3F,39,,1,0.3,2*6C
$PFLAU,1,1,2,1,3,168,2,16,28*52
$PGRMZ,166,f,3*1A
$GPRMC,153246.00,A,4506.29737,N,07537.42962,W,0.332,,241020,,,A*60
$GPGGA,153246.00,4506.29737,N,07537.42962,W,1,06,1.43,74.3,M,-34.1,M,,*50
$GPGSA,A,3,18,05,02,29,13,15,,,,,,,2.70,1.43,2.29*0B
$PFLAA,3,-27,5,16,1,C04E3F!FLR_C04E3F,39,,1,0.3,2*6C
$PFLAU,1,1,2,1,3,168,2,16,28*52
$PGRMZ,167,f,3*1B
$GPRMC,153247.00,A,4506.29745,N,07537.42970,W,0.184,,241020,,,A*68
$GPGGA,153247.00,4506.29745,N,07537.42970,W,1,06,1.43,73.9,M,-34.1,M,,*5A
$GPGSA,A,3,18,05,02,29,13,15,,,,,,,2.70,1.43,2.29*0B
$PFLAA,3,-26,9,18,1,C04E3F!FLR_C04E3F,23,,2,0.3,2*67
$PFLAU,1,1,2,1,3,160,2,18,28*54
$PGRMZ,166,f,3*1A
$GPRMC,153248.00,A,4506.29752,N,07537.42981,W,0.177,,241020,,,A*63
$GPGGA,153248.00,4506.29752,N,07537.42981,W,1,06,1.43,73.3,M,-34.1,M,,*57
$GPGSA,A,3,18,05,02,29,13,15,,,,,,,2.70,1.43,2.29*0B
$PFLAA,3,-26,13,18,1,C04E3F!FLR_C04E3F,21,,2,0.2,2*5F
$PFLAU,1,1,2,1,3,153,2,18,29*55
$PGRMZ,168,f,3*14
$GPRMC,153249.00,A,4506.29749,N,07537.42993,W,0.286,,241020,,,A*66
$GPGGA,153249.00,4506.29749,N,07537.42993,W,1,06,1.43,73.2,M,-34.1,M,,*5E
$GPGSA,A,3,18,05,02,29,13,15,,,,,,,2.70,1.43,2.29*0B
$PFLAA,3,-25,19,18,1,C04E3F!FLR_C04E3F,22,,3,0.4,2*52
$PFLAU,1,1,2,1,3,143,2,18,31*5D
$PGRMZ,168,f,3*14
$GPRMC,153250.00,A,4506.29671,N,07537.42903,W,0.321,,241020,,,A*61
$GPGGA,153250.00,4506.29671,N,07537.42903,W,1,07,1.22,76.4,M,-34.1,M,,*50
$GPGSA,A,3,18,05,02,23,29,13,15,,,,,,2.08,1.22,1.69*05
$PFLAA,3,-25,22,15,1,C04E3F!FLR_C04E3F,12,,3,0.4,2*54
$PFLAU,1,1,2,1,3,138,2,15,34*59
$PGRMZ,170,f,3*1D
$GPRMC,153251.00,A,4506.29624,N,07537.42891,W,0.294,,241020,,,A*65
$GPGGA,153251.00,4506.29624,N,07537.42891,W,1,07,1.22,76.7,M,-34.1,M,,*58
$GPGSA,A,3,18,05,02,23,29,13,15,,,,,,2.08,1.22,1.69*05
$PFLAA,3,-22,25,15,1,C04E3F!FLR_C04E3F,26,,3,0.3,2*54
$PFLAU,1,1,2,1,3,131,2,15,34*50
$PGRMZ,165,f,3*19
$GPRMC,153252.00,A,4506.29591,N,07537.42879,W,0.292,,241020,,,A*6B
$GPGGA,153252.00,4506.29591,N,07537.42879,W,1,07,1.22,76.3,M,-34.1,M,,*54
$GPGSA,A,3,18,05,02,23,29,13,15,,,,,,2.08,1.22,1.69*05
$PFLAA,3,-20,30,15,1,C04E3F!FLR_C04E3F,36,,3,0.4,2*54
$PFLAU,1,1,2,1,3,124,2,15,36*56
$PGRMZ,169,f,3*15
$GPRMC,153253.00,A,4506.29566,N,07537.42845,W,0.133,,241020,,,A*65
$GPGGA,153253.00,4506.29566,N,07537.42845,W,1,07,1.22,76.9,M,-34.1,M,,*58
$GPGSA,A,3,18,05,02,23,29,13,15,,,,,,2.08,1.22,1.69*05
$PFLAA,3,-19,33,17,1,C04E3F!FLR_C04E3F,48,,3,0.5,2*57
$PFLAU,1,1,2,1,3,120,2,17,38*5E
$PGRMZ,172,f,3*1F
$GPRMC,153254.00,A,4506.29546,N,07537.42799,W,0.258,,241020,,,A*60
$GPGGA,153254.00,4506.29546,N,07537.42799,W,1,07,1.22,78.4,M,-34.1,M,,*50
$GPGSA,A,3,18,05,02,23,29,13,15,,,,,,2.08,1.22,1.69*05
$PFLAA,3,-16,39,16,1,C04E3F!FLR_C04E3F,53,,3,0.7,2*5B
$PFLAU,1,1,2,1,3,113,2,16,43*53
$PGRMZ,171,f,3*1C
$GPRMC,153255.00,A,4506.29526,N,07537.42759,W,0.309,,241020,,,A*6E
$GPGGA,153255.00,4506.29526,N,07537.42759,W,1,07,1.22,79.7,M,-34.1,M,,*59
$GPGSA,A,3,18,05,02,23,29,13,15,,,,,,2.08,1.22,1.69*05
$PFLAA,3,-15,44,15,1,C04E3F!FLR_C04E3F,60,,4,0.8,2*59
$PFLAU,1,1,2,1,3,109,2,15,46*5E
$PGRMZ,171,f,3*1C
$GPRMC,153256.00,A,4506.29510,N,07537.42722,W,0.368,,241020,,,A*63
$GPGGA,153256.00,4506.29510,N,07537.42722,W,1,07,1.22,80.9,M,-34.1,M,,*5B
$GPGSA,A,3,18,05,02,23,29,13,15,,,,,,2.08,1.22,1.69*05
$PFLAU,1,1,2,1,0,0,2,0,2147483647*69
$PGRMZ,171,f,3*1C
$GPRMC,153257.00,A,4506.29514,N,07537.42703,W,0.396,,241020,,,A*64
$GPGGA,153257.00,4506.29514,N,07537.42703,W,1,07,1.22,81.3,M,-34.1,M,,*56
$GPGSA,A,3,18,05,02,23,29,13,15,,,,,,2.08,1.22,1.69*05
$PFLAA,3,-13,51,14,1,C04E3F!FLR_C04E3F,64,,4,0.6,2*50
$PFLAU,1,1,2,1,3,105,2,14,53*57
$PGRMZ,170,f,3*1D
$GPRMC,153258.00,A,4506.29512,N,07537.42682,W,0.214,,241020,,,A*6E
$GPGGA,153258.00,4506.29512,N,07537.42682,W,1,07,1.22,81.7,M,-34.1,M,,*53
$GPGSA,A,3,18,05,02,23,29,13,15,,,,,,2.08,1.22,1.69*05
$PFLAA,3,-12,56,14,1,C04E3F!FLR_C04E3F,64,,4,0.8,2*58
$PFLAU,1,1,2,1,3,102,2,14,57*54
$PGRMZ,168,f,3*14
$GPRMC,153259.00,A,4506.29505,N,07537.42664,W,0.187,,241020,,,A*68
$GPGGA,153259.00,4506.29505,N,07537.42664,W,1,07,1.22,82.3,M,-34.1,M,,*5B
$GPGSA,A,3,18,05,02,23,29,13,15,,,,,,2.08,1.22,1.69*05
$PFLAA,3,-12,56,13,1,C04E3F!FLR_C04E3F,64,,4,0.8,2*5F
$PFLAU,1,1,2,1,3,102,2,13,57*53
$PGRMZ,168,f,3*14
$GPRMC,153300.00,A,4506.29510,N,07537.42650,W,0.349,,241020,,,A*66
$GPGGA,153300.00,4506.29510,N,07537.42650,W,1,07,1.22,82.5,M,-34.1,M,,*53
$GPGSA,A,3,18,05,02,23,29,13,15,,,,,,2.08,1.22,1.69*05
$PFLAA,3,-11,60,13,1,C04E3F!FLR_C04E3F,57,,4,1.0,2*50
$PFLAU,1,1,2,1,3,101,2,13,61*55
$PGRMZ,167,f,3*1B
$GPRMC,153301.00,A,4506.29497,N,07537.42626,W,0.076,,241020,,,A*67
$GPGGA,153301.00,4506.29497,N,07537.42626,W,1,08,1.17,83.2,M,-34.1,M,,*52
$GPGSA,A,3,18,20,05,02,23,29,13,15,,,,,1.97,1.17,1.58*06
$PFLAA,3,-10,63,12,1,C04E3F!FLR_C04E3F,69,,4,1.1,2*5F
$PFLAU,1,1,2,1,3,99,2,12,64*61
$PGRMZ,168,f,3*14
$GPRMC,153302.00,A,4506.29483,N,07537.42603,W,0.237,,241020,,,A*61
$GPGGA,153302.00,4506.29483,N,07537.42603,W,1,08,1.17,84.0,M,-34.1,M,,*56
$GPGSA,A,3,18,20,05,02,23,29,13,15,,,,,1.97,1.17,1.58*06
$PFLAA,3,-9,67,12,1,C04E3F!FLR_C04E3F,64,,4,1.0,2*6F
$PFLAU,1,1,2,1,3,98,2,12,68*6C
$PGRMZ,167,f,3*1B
$GPRMC,153303.00,A,4506.29477,N,07537.42578,W,0.171,,241020,,,A*65
$GPGGA,153303.00,4506.29477,N,07537.42578,W,1,08,1.17,84.7,M,-34.1,M,,*54
$GPGSA,A,3,18,20,05,02,23,29,13,15,,,,,1.97,1.17,1.58*06
$PFLAA,3,-8,70,10,1,C04E3F!FLR_C04E3F,68,,4,0.7,2*60
$PFLAU,1,1,2,1,3,97,2,10,71*69
$PGRMZ,169,f,3*15
$GPRMC,153304.00,A,4506.29476,N,07537.42562,W,0.178,,241020,,,A*61
$GPGGA,153304.00,4506.29476,N,07537.42562,W,1,08,1.17,85.2,M,-34.1,M,,*5D
$GPGSA,A,3,18,20,05,02,23,29,13,15,,,,,1.97,1.17,1.58*06
$PFLAA,3,-6,74,9,1,C04E3F!FLR_C04E3F,76,,4,0.8,2*52
$PFLAU,1,1,2,1,3,95,2,9,75*57
$PGRMZ,170,f,3*1D
$GPRMC,153305.00,A,4506.29462,N,07537.42548,W,0.239,,241020,,,A*6B
$GPGGA,153305.00,4506.29462,N,07537.42548,W,1,08,1.17,86.1,M,-34.1,M,,*51
$GPGSA,A,3,18,20,05,02,23,29,13,15,,,,,1.97,1.17,1.58*06
$PFLAA,3,-4,81,9,1,C04E3F!FLR_C04E3F,75,,4,1.2,2*52
$PFLAU,1,1,2,1,3,93,2,9,81*5A
$PGRMZ,170,f,3*1D
$GPRMC,153306.00,A,4506.29458,N,07537.42547,W,0.176,,241020,,,A*66
$GPGGA,153306.00,4506.29458,N,07537.42547,W,1,08,1.17,86.5,M,-34.1,M,,*50
$GPGSA,A,3,18,20,05,02,23,29,13,15,,,,,1.97,1.17,1.58*06
$PFLAA,3,-4,81,8,1,C04E3F!FLR_C04E3F,75,,4,1.2,2*53
$PFLAU,1,1,2,1,3,93,2,8,81*5B
$PGRMZ,174,f,3*19
$GPRMC,153307.00,A,4506.29458,N,07537.42554,W,0.079,,241020,,,A*6B
$GPGGA,153307.00,4506.29458,N,07537.42554,W,1,08,1.17,86.5,M,-34.1,M,,*53
$GPGSA,A,3,18,20,05,02,23,29,13,15,,,,,1.97,1.17,1.58*06
$PFLAA,3,-1,89,7,1,C04E3F!FLR_C04E3F,78,,3,0.9,2*51
$PFLAU,1,1,2,1,3,91,2,7,89*5E
$PGRMZ,176,f,3*1B
$GPRMC,153308.00,A,4506.29467,N,07537.42552,W,0.303,,241020,,,A*60
$GPGGA,153308.00,4506.29467,N,07537.42552,W,1,08,1.17,86.1,M,-34.1,M,,*52
$GPGSA,A,3,18,20,05,02,23,29,13,15,,,,,1.97,1.17,1.58*06
$PFLAA,3,-1,89,8,1,C04E3F!FLR_C04E3F,78,,3,0.9,2*5E
$PFLAU,1,1,2,1,3,91,2,8,89*51
$PGRMZ,177,f,3*1A
$GPRMC,153309.00,A,4506.29475,N,07537.42559,W,0.023,,241020,,,A*68
$GPGGA,153309.00,4506.29475,N,07537.42559,W,1,08,1.17,85.5,M,-34.1,M,,*5C
$GPGSA,A,3,18,20,05,02,23,29,13,15,,,,,1.97,1.17,1.58*06
$PFLAA,3,0,96,8,1,C04E3F!FLR_C04E3F,75,,3,0.9,2*71
$PFLAU,1,1,2,1,3,90,2,8,96*5E
$PGRMZ,180,f,3*12
$GPRMC,153310.00,A,4506.29483,N,07537.42545,W,0.450,,241020,,,A*64
$GPGGA,153310.00,4506.29483,N,07537.42545,W,1,08,1.20,85.3,M,-34.1,M,,*52
$GPGSA,A,3,18,20,05,02,23,29,13,15,,,,,2.12,1.20,1.76*00
$PFLAA,3,0,96,8,1,C04E3F!FLR_C04E3F,75,,3,0.9,2*71
$PFLAU,1,1,2,1,3,90,2,8,96*5E
$PGRMZ,180,f,3*12
$GPRMC,153311.00,A,4506.29487,N,07537.42528,W,0.089,,241020,,,A*6A
$GPGGA,153311.00,4506.29487,N,07537.42528,W,1,08,1.20,85.7,M,-34.1,M,,*58
$GPGSA,A,3,18,20,05,02,23,29,13,15,,,,,2.12,1.20,1.76*00
$PFLAA,3,1,104,8,1,C04E3F!FLR_C04E3F,75,,3,0.6,2*45
$PFLAU,1,1,2,1,3,89,2,8,104*6C
$PGRMZ,180,f,3*12
$GPRMC,153312.00,A,4506.29486,N,07537.42504,W,0.046,,241020,,,A*65
$GPGGA,153312.00,4506.29486,N,07537.42504,W,1,08,1.20,86.5,M,-34.1,M,,*55
$GPGSA,A,3,18,20,05,02,23,29,13,15,,,,,2.12,1.20,1.76*00
$PFLAA,3,3,107,7,1,C04E3F!FLR_C04E3F,68,,4,0.6,2*40
$PFLAU,1,1,2,1,3,88,2,7,107*61
$PGRMZ,180,f,3*12
$GPRMC,153313.00,A,4506.29483,N,07537.42483,W,0.021,,241020,,,A*6E
$GPGGA,153313.00,4506.29483,N,07537.42483,W,1,08,1.20,87.0,M,-34.1,M,,*5B
$GPGSA,A,3,18,20,05,02,23,29,13,15,,,,,2.12,1.20,1.76*00
$PFLAA,3,3,111,6,1,C04E3F!FLR_C04E3F,75,,4,0.4,2*48
$PFLAU,1,1,2,1,3,88,2,6,112*64
$PGRMZ,177,f,3*1A
$GPRMC,153314.00,A,4506.29472,N,07537.42467,W,0.053,,241020,,,A*68
$GPGGA,153314.00,4506.29472,N,07537.42467,W,1,08,1.17,87.6,M,-34.1,M,,*5A
$GPGSA,A,3,18,20,05,02,23,29,13,15,,,,,1.97,1.17,1.58*06
$PFLAA,3,4,115,6,1,C04E3F!FLR_C04E3F,90,,3,0.6,2*45
$PFLAU,1,1,2,1,3,88,2,6,115*63
$PGRMZ,179,f,3*14
$GPRMC,153315.00,A,4506.29467,N,07537.42462,W,0.235,,241020,,,A*6A
$GPGGA,153315.00,4506.29467,N,07537.42462,W,1,08,1.17,87.7,M,-34.1,M,,*5B
$GPGSA,A,3,18,20,05,02,23,29,13,15,,,,,1.97,1.17,1.58*06
$PFLAA,3,4,115,6,1,C04E3F!FLR_C04E3F,90,,3,0.6,2*45
$PFLAU,1,1,2,1,3,88,2,6,115*63
$PGRMZ,179,f,3*14
$GPRMC,153316.00,A,4506.29457,N,07537.42454,W,0.194,,241020,,,A*67
$GPGGA,153316.00,4506.29457,N,07537.42454,W,1,08,1.17,88.1,M,-34.1,M,,*57
$GPGSA,A,3,18,20,05,02,23,29,13,15,,,,,1.97,1.17,1.58*06
$PFLAA,3,4,117,5,1,C04E3F!FLR_C04E3F,99,,3,0.3,2*48
$PFLAU,1,1,2,1,3,88,2,5,117*62
$PGRMZ,180,f,3*12
$GPRMC,153317.00,A,4506.29441,N,07537.42450,W,0.284,,241020,,,A*67
$GPGGA,153317.00,4506.29441,N,07537.42450,W,1,08,1.17,88.3,M,-34.1,M,,*57
$GPGSA,A,3,18,20,05,02,23,29,13,15,,,,,1.97,1.17,1.58*06
$PFLAA,3,2,121,5,1,C04E3F!FLR_C04E3F,139,,2,0.6,2*74
$PFLAU,1,1,2,1,3,89,2,5,121*66
$PGRMZ,178,f,3*15
$GPRMC,153318.00,A,4506.29428,N,07537.42446,W,0.291,,241020,,,A*64
$GPGGA,153318.00,4506.29428,N,07537.42446,W,1,08,1.17,88.4,M,-34.1,M,,*57
$GPGSA,A,3,18,20,05,02,23,29,13,15,,,,,1.97,1.17,1.58*06
$PFLAA,3,0,122,5,1,C04E3F!FLR_C04E3F,156,,1,0.6,2*7F
$PFLAU,1,1,2,1,3,90,2,5,122*6D
$PGRMZ,174,f,3*19
$GPRMC,153319.00,A,4506.29418,N,07537.42436,W,0.246,,241020,,,A*6B
$GPGGA,153319.00,4506.29418,N,07537.42436,W,1,08,1.17,88.7,M,-34.1,M,,*51
$GPGSA,A,3,18,20,05,02,23,29,13,15,,,,,1.97,1.17,1.58*06
$PFLAA,3,-2,119,4,1,C04E3F!FLR_C04E3F,180,,1,0.7,2*53
$PFLAU,1,1,2,1,3,91,2,4,119*65
$PGRMZ,172,f,3*1F
$GPRMC,153320.00,A,4506.29404,N,07537.42434,W,0.342,,241020,,,A*6B
$GPGGA,153320.00,4506.29404,N,07537.42434,W,1,08,1.17,89.1,M,-34.1,M,,*53
$GPGSA,A,3,18,20,05,02,23,29,13,15,,,,,1.97,1.17,1.58*06
$PFLAA,3,0,117,3,1,C04E3F!FLR_C04E3F,180,,0,0.3,2*70
$PFLAU,1,1,2,1,3,90,2,3,117*6D
$PGRMZ,168,f,3*14
$GPRMC,153321.00,A,4506.29390,N,07537.42425,W,0.262,,241020,,,A*63
$GPGGA,153321.00,4506.29390,N,07537.42425,W,1,07,1.22,89.5,M,-34.1,M,,*55
$GPGSA,A,3,18,05,02,23,29,13,15,,,,,,2.08,1.22,1.69*05
$PFLAA,3,0,117,2,1,C04E3F!FLR_C04E3F,180,,0,0.3,2*71
$PFLAU,1,1,2,1,3,90,2,2,117*6C
$PGRMZ,168,f,3*14
$GPRMC,153322.00,A,4506.29385,N,07537.42420,W,0.168,,241020,,,A*68
$GPGGA,153322.00,4506.29385,N,07537.42420,W,1,07,1.22,89.8,M,-34.1,M,,*5A
$GPGSA,A,3,18,05,02,23,29,13,15,,,,,,2.08,1.22,1.69*05
$PFLAA,3,-2,115,3,1,C04E3F!FLR_C04E3F,225,,0,0.5,2*57
$PFLAU,1,1,2,1,3,91,2,3,115*6E
$PGRMZ,166,f,3*1A
$GPRMC,153323.00,A,4506.29376,N,07537.42419,W,0.535,,241020,,,A*63
$GPGGA,153323.00,4506.29376,N,07537.42419,W,1,08,1.17,90.3,M,-34.1,M,,*57
$GPGSA,A,3,18,20,05,02,23,29,13,15,,,,,1.97,1.17,1.58*06
$PFLAA,3,-2,115,2,1,C04E3F!FLR_C04E3F,225,,0,0.5,2*56
$PFLAU,1,1,2,1,3,91,2,2,115*6F
$PGRMZ,166,f,3*1A
$GPRMC,153324.00,A,4506.29362,N,07537.42422,W,0.423,,241020,,,A*6F
$GPGGA,153324.00,4506.29362,N,07537.42422,W,1,08,1.22,90.7,M,-34.1,M,,*5F
$GPGSA,A,3,18,20,05,02,23,29,13,15,,,,,2.08,1.22,1.69*07
$PFLAA,3,0,115,2,1,C04E3F!FLR_C04E3F,270,,0,0.6,2*7A
$PFLAU,1,1,2,1,3,90,2,2,115*6E
$PGRMZ,165,f,3*19
$GPRMC,153325.00,A,4506.29349,N,07537.42432,W,0.143,,241020,,,A*65
$GPGGA,153325.00,4506.29349,N,07537.42432,W,1,07,1.22,90.9,M,-34.1,M,,*57
$GPGSA,A,3,18,05,02,23,29,13,15,,,,,,2.08,1.22,1.69*05
$PFLAA,3,0,115,2,1,C04E3F!FLR_C04E3F,270,,0,0.7,2*7B
$PFLAU,1,1,2,1,3,90,2,2,115*6E
$PGRMZ,164,f,3*18
$GPRMC,153326.00,A,4506.29348,N,07537.42444,W,0.382,,241020,,,A*69
$GPGGA,153326.00,4506.29348,N,07537.42444,W,1,07,1.22,91.0,M,-34.1,M,,*5C
$GPGSA,A,3,18,05,02,23,29,13,15,,,,,,2.08,1.22,1.69*05
$PFLAA,3,0,115,2,1,C04E3F!FLR_C04E3F,270,,0,0.7,2*7B
$PFLAU,1,1,2,1,3,90,2,2,115*6E
$PGRMZ,160,f,3*1C
$GPRMC,153327.00,A,4506.29349,N,07537.42458,W,0.153,,241020,,,A*6A
$GPGGA,153327.00,4506.29349,N,07537.42458,W,1,07,1.22,90.9,M,-34.1,M,,*59
$GPGSA,A,3,18,05,02,23,29,13,15,,,,,,2.08,1.22,1.69*05
$PFLAA,3,2,115,2,1,C04E3F!FLR_C04E3F,0,,0,0.7,2*7C
$PFLAU,1,1,2,1,3,89,2,2,115*66
$PGRMZ,160,f,3*1C
$GPRMC,153328.00,A,4506.29352,N,07537.42466,W,0.258,,241020,,,A*6A
$GPGGA,153328.00,4506.29352,N,07537.42466,W,1,07,1.22,91.0,M,-34.1,M,,*59
$GPGSA,A,3,18,05,02,23,29,13,15,,,,,,2.08,1.22,1.69*05
$PFLAA,3,2,115,2,1,C04E3F!FLR_C04E3F,0,,0,0.7,2*7C
$PFLAU,1,1,2,1,3,89,2,2,115*66
$PGRMZ,162,f,3*1E
$GPRMC,153329.00,A,4506.29358,N,07537.42469,W,0.332,,241020,,,A*63
$GPGGA,153329.00,4506.29358,N,07537.42469,W,1,07,1.22,90.8,M,-34.1,M,,*54
$GPGSA,A,3,18,05,02,23,29,13,15,,,,,,2.08,1.22,1.69*05
$PFLAA,3,2,115,2,1,C04E3F!FLR_C04E3F,0,,0,0.7,2*7C
$PFLAU,1,1,2,1,3,89,2,2,115*66
$PGRMZ,161,f,3*1D
$GPRMC,153330.00,A,4506.29368,N,07537.42469,W,0.220,,241020,,,A*6A
$GPGGA,153330.00,4506.29368,N,07537.42469,W,1,07,1.22,90.8,M,-34.1,M,,*5F
$GPGSA,A,3,18,05,02,23,29,13,15,,,,,,2.08,1.22,1.69*05
$PFLAA,3,2,115,2,1,C04E3F!FLR_C04E3F,270,,0,0.8,2*76
$PFLAU,1,1,2,1,3,89,2,2,115*66
$PGRMZ,161,f,3*1D
$GPRMC,153331.00,A,4506.29382,N,07537.42469,W,0.205,,241020,,,A*68
$GPGGA,153331.00,4506.29382,N,07537.42469,W,1,07,1.22,90.7,M,-34.1,M,,*55
$GPGSA,A,3,18,05,02,23,29,13,15,,,,,,2.08,1.22,1.69*05
$PFLAA,3,2,115,3,1,C04E3F!FLR_C04E3F,270,,0,0.9,2*76
$PFLAU,1,1,2,1,3,89,2,3,115*67
$PGRMZ,158,f,3*17
$GPRMC,153332.00,A,4506.29397,N,07537.42470,W,0.303,,241020,,,A*60
$GPGGA,153332.00,4506.29397,N,07537.42470,W,1,07,1.22,90.2,M,-34.1,M,,*5F
$GPGSA,A,3,18,05,02,23,29,13,15,,,,,,2.08,1.22,1.69*05
$PFLAA,3,2,115,3,1,C04E3F!FLR_C04E3F,270,,0,0.9,2*76
$PFLAU,1,1,2,1,3,89,2,3,115*67
$PGRMZ,156,f,3*19
$GPRMC,153333.00,A,4506.29412,N,07537.42477,W,0.112,,241020,,,A*6E
$GPGGA,153333.00,4506.29412,N,07537.42477,W,1,07,1.22,89.8,M,-34.1,M,,*51
$GPGSA,A,3,18,05,02,23,29,13,15,,,,,,2.08,1.22,1.69*05
$PFLAA,3,2,116,4,1,C04E3F!FLR_C04E3F,270,,0,0.9,2*72
$PFLAU,1,1,2,1,3,89,2,4,116*63
$PGRMZ,156,f,3*19
$GPRMC,153334.00,A,4506.29421,N,07537.42487,W,0.165,,241020,,,A*66
$GPGGA,153334.00,4506.29421,N,07537.42487,W,1,07,1.22,89.5,M,-34.1,M,,*54
$GPGSA,A,3,18,05,02,23,29,13,15,,,,,,2.08,1.22,1.69*05
$PFLAA,3,2,114,3,1,C04E3F!FLR_C04E3F,0,,0,0.7,2*7C
$PFLAU,1,1,2,1,3,89,2,3,114*66
$PGRMZ,158,f,3*17
$GPRMC,153335.00,A,4506.29430,N,07537.42500,W,0.144,,241020,,,A*6A
$GPGGA,153335.00,4506.29430,N,07537.42500,W,1,07,1.22,89.1,M,-34.1,M,,*5F
$GPGSA,A,3,18,05,02,23,29,13,15,,,,,,2.08,1.22,1.69*05
$PFLAA,3,0,115,4,1,C04E3F!FLR_C04E3F,270,,0,0.8,2*72
$PFLAU,1,1,2,1,3,90,2,4,115*68
$PGRMZ,165,f,3*19
$GPRMC,153336.00,A,4506.29430,N,07537.42503,W,0.549,,241020,,,A*63
$GPGGA,153336.00,4506.29430,N,07537.42503,W,1,07,1.22,89.1,M,-34.1,M,,*5F
$GPGSA,A,3,18,05,02,23,29,13,15,,,,,,2.08,1.22,1.69*05
$PFLAA,3,0,115,4,1,C04E3F!FLR_C04E3F,270,,0,0.8,2*72
$PFLAU,1,1,2,1,3,90,2,4,115*68
$PGRMZ,173,f,3*1E
$GPRMC,153337.00,A,4506.29419,N,07537.42498,W,0.681,,241020,,,A*6D
$GPGGA,153337.00,4506.29419,N,07537.42498,W,1,07,1.22,89.4,M,-34.1,M,,*53
$GPGSA,A,3,18,05,02,23,29,13,15,,,,,,2.08,1.22,1.69*05
$PFLAA,3,2,114,3,1,C04E3F!FLR_C04E3F,270,,0,0.8,2*76
$PFLAU,1,1,2,1,3,89,2,3,114*66
$PGRMZ,181,f,3*13
$GPRMC,153338.00,A,4506.29420,N,07537.42499,W,0.363,,241020,,,A*60
$GPGGA,153338.00,4506.29420,N,07537.42499,W,1,07,1.22,89.7,M,-34.1,M,,*54
$GPGSA,A,3,18,05,02,23,29,13,15,,,,,,2.08,1.22,1.69*05
$PFLAA,3,1,113,3,1,C04E3F!FLR_C04E3F,270,,0,0.9,2*73
$PFLAU,1,1,2,1,3,89,2,3,113*61
$PGRMZ,186,f,3*14
$GPRMC,153339.00,A,4506.29426,N,07537.42506,W,0.126,,241020,,,A*63
$GPGGA,153339.00,4506.29426,N,07537.42506,W,1,07,1.22,89.7,M,-34.1,M,,*54
$GPGSA,A,3,18,05,02,23,29,13,15,,,,,,2.08,1.22,1.69*05
$PFLAA,3,2,114,3,1,C04E3F!FLR_C04E3F,0,,0,0.7,2*7C
$PFLAU,1,1,2,1,3,89,2,3,114*66
$PGRMZ,189,f,3*1B
$GPRMC,153340.00,A,4506.29423,N,07537.42506,W,0.175,,241020,,,A*6E
$GPGGA,153340.00,4506.29423,N,07537.42506,W,1,07,1.22,89.8,M,-34.1,M,,*50
$GPGSA,A,3,18,05,02,23,29,13,15,,,,,,2.08,1.22,1.69*05
$PFLAA,3,0,115,3,1,C04E3F!FLR_C04E3F,270,,0,0.9,2*74
$PFLAU,1,1,2,1,3,90,2,3,115*6F
$PGRMZ,188,f,3*1A
$GPRMC,153341.00,A,4506.29419,N,07537.42513,W,0.491,,241020,,,A*6D
$GPGGA,153341.00,4506.29419,N,07537.42513,W,1,07,1.22,90.0,M,-34.1,M,,*5C
$GPGSA,A,3,18,05,02,23,29,13,15,,,,,,2.08,1.22,1.69*05
$PFLAA,3,0,115,3,1,C04E3F!FLR_C04E3F,270,,0,0.9,2*74
$PFLAU,1,1,2,1,3,90,2,3,115*6F
$PGRMZ,188,f,3*1A
$GPRMC,153342.00,A,4506.29416,N,07537.42516,W,0.263,,241020,,,A*6F
$GPGGA,153342.00,4506.29416,N,07537.42516,W,1,07,1.22,90.5,M,-34.1,M,,*50
$GPGSA,A,3,18,05,02,23,29,13,15,,,,,,2.08,1.22,1.69*05
$PFLAA,3,0,115,3,1,C04E3F!FLR_C04E3F,270,,0,0.9,2*74
$PFLAU,1,1,2,1,3,90,2,3,115*6F
$PGRMZ,190,f,3*13
$GPRMC,153343.00,A,4506.29419,N,07537.42510,W,0.104,,241020,,,A*65
$GPGGA,153343.00,4506.29419,N,07537.42510,W,1,07,1.22,91.3,M,-34.1,M,,*5F
$GPGSA,A,3,18,05,02,23,29,13,15,,,,,,2.08,1.22,1.69*05
$PFLAA,3,-2,114,1,1,C04E3F!FLR_C04E3F,0,,0,0.8,2*5C
$PFLAU,1,1,2,1,3,91,2,1,115*6C
$PGRMZ,192,f,3*11
$GPRMC,153344.00,A,4506.29423,N,07537.42514,W,0.269,,241020,,,A*67
$GPGGA,153344.00,4506.29423,N,07537.42514,W,1,07,1.22,91.9,M,-34.1,M,,*5F
$GPGSA,A,3,18,05,02,23,29,13,15,,,,,,2.08,1.22,1.69*05
$PFLAA,3,-2,114,1,1,C04E3F!FLR_C04E3F,0,,0,0.6,2*52
$PFLAU,1,1,2,1,3,91,2,1,115*6C
$PGRMZ,190,f,3*13
$GPRMC,153345.00,A,4506.29420,N,07537.42518,W,0.063,,241020,,,A*61
$GPGGA,153345.00,4506.29420,N,07537.42518,W,1,07,1.22,92.3,M,-34.1,M,,*58
$GPGSA,A,3,18,05,02,23,29,13,15,,,,,,2.08,1.22,1.69*05
$PFLAA,3,-2,114,0,1,C04E3F!FLR_C04E3F,0,,0,0.6,2*53
$PFLAU,1,1,2,1,3,91,2,0,115*6D
$PGRMZ,196,f,3*15
$GPRMC,153346.00,A,4506.29426,N,07537.42521,W,0.187,,241020,,,A*65
$GPGGA,153346.00,4506.29426,N,07537.42521,W,1,08,1.17,92.3,M,-34.1,M,,*5E
$GPGSA,A,3,18,20,05,02,23,29,13,15,,,,,1.97,1.17,1.58*06
$PFLAA,3,-2,116,0,1,C04E3F!FLR_C04E3F,0,,0,0.8,2*5F
$PFLAU,1,1,2,1,3,91,2,0,116*6E
$PGRMZ,193,f,3*10
$GPRMC,153347.00,A,4506.29425,N,07537.42512,W,0.802,,241020,,,A*63
$GPGGA,153347.00,4506.29425,N,07537.42512,W,1,08,1.17,92.2,M,-34.1,M,,*5D
$GPGSA,A,3,18,20,05,02,23,29,13,15,,,,,1.97,1.17,1.58*06
$PFLAA,3,-2,116,0,1,C04E3F!FLR_C04E3F,0,,0,0.8,2*5F
$PFLAU,1,1,2,1,3,91,2,0,116*6E
$PGRMZ,195,f,3*16
$GPRMC,153348.00,A,4506.29421,N,07537.42501,W,0.245,,241020,,,A*63
$GPGGA,153348.00,4506.29421,N,07537.42501,W,1,08,1.17,92.2,M,-34.1,M,,*54
$GPGSA,A,3,18,20,05,02,23,29,13,15,,,,,1.97,1.17,1.58*06
$PFLAA,3,0,116,1,1,C04E3F!FLR_C04E3F,270,,0,1.0,2*7D
$PFLAU,1,1,2,1,3,90,2,1,116*6E
$PGRMZ,191,f,3*12
$GPRMC,153349.00,A,4506.29420,N,07537.42501,W,0.259,,241020,,,A*6E
$GPGGA,153349.00,4506.29420,N,07537.42501,W,1,08,1.22,92.5,M,-34.1,M,,*55
$GPGSA,A,3,18,20,05,02,23,29,13,15,,,,,2.08,1.22,1.69*07
$PFLAA,3,0,116,1,1,C04E3F!FLR_C04E3F,270,,0,1.0,2*7D
$PFLAU,1,1,2,1,3,90,2,1,116*6E
$PGRMZ,194,f,3*17
$GPRMC,153350.00,A,4506.29426,N,07537.42507,W,0.150,,241020,,,A*6C
$GPGGA,153350.00,4506.29426,N,07537.42507,W,1,08,1.22,92.2,M,-34.1,M,,*5A
$GPGSA,A,3,18,20,05,02,23,29,13,15,,,,,2.08,1.22,1.69*07
$PFLAA,3,2,116,2,1,C04E3F!FLR_C04E3F,270,,0,1.0,2*7C
$PFLAU,1,1,2,1,3,89,2,2,116*65
$PGRMZ,193,f,3*10
$GPRMC,153351.00,A,4506.29430,N,07537.42512,W,0.166,,241020,,,A*6B
$GPGGA,153351.00,4506.29430,N,07537.42512,W,1,10,1.13,91.9,M,-34.1,M,,*5B
$GPGSA,A,3,18,51,20,05,02,23,29,13,46,15,,,2.04,1.13,1.70*07
$PFLAA,3,2,116,1,1,C04E3F!FLR_C04E3F,270,,0,0.9,2*77
$PFLAU,1,1,2,1,3,89,2,1,116*66
$PGRMZ,193,f,3*10
$GPRMC,153352.00,A,4506.29437,N,07537.42525,W,0.170,,241020,,,A*6C
$GPGGA,153352.00,4506.29437,N,07537.42525,W,1,10,1.06,91.6,M,-34.1,M,,*50
$GPGSA,A,3,18,51,20,05,02,23,29,13,46,15,,,1.95,1.06,1.64*0D
$PFLAA,3,2,116,1,1,C04E3F!FLR_C04E3F,0,,0,0.7,2*7C
$PFLAU,1,1,2,1,3,89,2,1,116*66
$PGRMZ,194,f,3*17
$GPRMC,153353.00,A,4506.29432,N,07537.42533,W,0.068,,241020,,,A*67
$GPGGA,153353.00,4506.29432,N,07537.42533,W,1,10,1.13,91.6,M,-34.1,M,,*57
$GPGSA,A,3,18,51,20,05,02,23,29,13,46,15,,,2.04,1.13,1.70*07
$PFLAA,3,2,115,1,1,C04E3F!FLR_C04E3F,0,,0,0.5,2*7D
$PFLAU,1,1,2,1,3,89,2,1,115*65
$PGRMZ,193,f,3*10
$GPRMC,153354.00,A,4506.29434,N,07537.42543,W,0.140,,241020,,,A*6A
$GPGGA,153354.00,4506.29434,N,07537.42543,W,1,10,1.05,91.3,M,-34.1,M,,*53
$GPGSA,A,3,18,51,20,05,02,23,29,13,46,15,,,1.83,1.05,1.51*0F
$PFLAA,3,4,116,1,1,C04E3F!FLR_C04E3F,270,,0,0.6,2*7E
$PFLAU,1,1,2,1,3,88,2,1,116*67
$PGRMZ,191,f,3*12
$GPRMC,153355.00,A,4506.29441,N,07537.42558,W,0.398,,241020,,,A*64
$GPGGA,153355.00,4506.29441,N,07537.42558,W,1,10,1.05,91.0,M,-34.1,M,,*59
$GPGSA,A,3,18,51,20,05,02,23,29,13,46,15,,,1.83,1.05,1.51*0F
$PFLAA,3,2,116,2,1,C04E3F!FLR_C04E3F,270,,0,0.6,2*7B
$PFLAU,1,1,2,1,3,89,2,2,116*65
$PGRMZ,191,f,3*12
$GPRMC,153356.00,A,4506.29453,N,07537.42569,W,0.179,,241020,,,A*6B
$GPGGA,153356.00,4506.29453,N,07537.42569,W,1,10,1.05,90.8,M,-34.1,M,,*52
$GPGSA,A,3,18,51,20,05,02,23,29,13,46,15,,,1.83,1.05,1.51*0F
$PFLAA,3,2,117,1,1,C04E3F!FLR_C04E3F,0,,0,0.7,2*7D
$PFLAU,1,1,2,1,3,89,2,1,117*67
$PGRMZ,192,f,3*11
$GPRMC,153357.00,A,4506.29453,N,07537.42576,W,0.222,,241020,,,A*69
$GPGGA,153357.00,4506.29453,N,07537.42576,W,1,10,1.05,90.7,M,-34.1,M,,*52
$GPGSA,A,3,18,51,20,05,02,23,29,13,46,15,,,1.83,1.05,1.51*0F
$PFLAA,3,2,117,1,1,C04E3F!FLR_C04E3F,0,,0,0.7,2*7D
$PFLAU,1,1,2,1,3,89,2,1,117*67
$PGRMZ,191,f,3*12
$GPRMC,153358.00,A,4506.29455,N,07537.42577,W,0.090,,241020,,,A*6A
$GPGGA,153358.00,4506.29455,N,07537.42577,W,1,10,1.05,90.8,M,-34.1,M,,*55
$GPGSA,A,3,18,51,20,05,02,23,29,13,46,15,,,1.83,1.05,1.51*0F
$PFLAA,3,2,117,1,1,C04E3F!FLR_C04E3F,0,,0,0.5,2*7F
$PFLAU,1,1,2,1,3,89,2,1,117*67
$PGRMZ,191,f,3*12
$GPRMC,153359.00,A,4506.29466,N,07537.42576,W,0.124,,241020,,,A*64
$GPGGA,153359.00,4506.29466,N,07537.42576,W,1,10,1.05,90.6,M,-34.1,M,,*5B
$GPGSA,A,3,18,51,20,05,02,23,29,13,46,15,,,1.83,1.05,1.51*0F
$PFLAA,3,2,117,1,1,C04E3F!FLR_C04E3F,315,,0,0.7,2*7A
$PFLAU,1,1,2,1,3,89,2,1,117*67
$PGRMZ,192,f,3*11
$GPRMC,153400.00,A,4506.29481,N,07537.42573,W,0.551,331.85,241020,,,A*77
$GPGGA,153400.00,4506.29481,N,07537.42573,W,1,10,1.05,90.6,M,-34.1,M,,*5C
$GPGSA,A,3,18,51,20,05,02,23,29,13,46,15,,,1.83,1.05,1.51*0F
$PFLAA,3,2,117,1,1,C04E3F!FLR_C04E3F,270,,0,0.7,2*78
$PFLAU,1,1,2,1,3,89,2,1,117*67
$PGRMZ,194,f,3*17
$GPRMC,153401.00,A,4506.29494,N,07537.42569,W,0.032,,241020,,,A*6B
$GPGGA,153401.00,4506.29494,N,07537.42569,W,1,10,1.05,90.7,M,-34.1,M,,*53
$GPGSA,A,3,18,51,20,05,02,23,29,13,46,15,,,1.83,1.05,1.51*0F
$PFLAA,3,2,117,1,1,C04E3F!FLR_C04E3F,270,,0,0.7,2*78
$PFLAU,1,1,2,1,3,89,2,1,117*67
$PGRMZ,192,f,3*11
$GPRMC,153402.00,A,4506.29502,N,07537.42561,W,0.065,,241020,,,A*6C
$GPGGA,153402.00,4506.29502,N,07537.42561,W,1,10,1.11,90.0,M,-34.1,M,,*54
$GPGSA,A,3,18,51,20,05,02,23,29,13,46,15,,,1.92,1.11,1.56*0D
$PFLAA,3,2,116,3,1,C04E3F!FLR_C04E3F,0,,0,0.6,2*7F
$PFLAU,1,1,2,1,3,89,2,3,116*64
$PGRMZ,190,f,3*13
$GPRMC,153403.00,A,4506.29506,N,07537.42549,W,0.411,,241020,,,A*64
$GPGGA,153403.00,4506.29506,N,07537.42549,W,1,10,1.05,90.0,M,-34.1,M,,*5E
$GPGSA,A,3,18,51,20,05,02,23,29,13,46,15,,,1.83,1.05,1.51*0F
$PFLAA,3,2,117,3,1,C04E3F!FLR_C04E3F,0,,0,0.7,2*7F
$PFLAU,1,1,2,1,3,89,2,3,117*65
$PGRMZ,191,f,3*12
$GPRMC,153404.00,A,4506.29502,N,07537.42533,W,0.079,,241020,,,A*60
$GPGGA,153404.00,4506.29502,N,07537.42533,W,1,10,1.05,90.1,M,-34.1,M,,*51
$GPGSA,A,3,18,51,20,05,02,23,29,13,46,15,,,1.83,1.05,1.51*0F
$PFLAA,3,2,116,3,1,C04E3F!FLR_C04E3F,0,,0,0.6,2*7F
$PFLAU,1,1,2,1,3,89,2,3,116*64
$PGRMZ,192,f,3*11
$GPRMC,153405.00,A,4506.29497,N,07537.42525,W,0.305,,241020,,,A*63
$GPGGA,153405.00,4506.29497,N,07537.42525,W,1,10,1.05,90.2,M,-34.1,M,,*59
$GPGSA,A,3,18,51,20,05,02,23,29,13,46,15,,,1.83,1.05,1.51*0F
$PFLAA,3,2,116,4,1,C04E3F!FLR_C04E3F,270,,0,1.2,2*78
$PFLAU,1,1,2,1,3,89,2,4,116*63
$PGRMZ,191,f,3*12
$GPRMC,153406.00,A,4506.29485,N,07537.42519,W,0.373,,241020,,,A*6D
$GPGGA,153406.00,4506.29485,N,07537.42519,W,1,10,1.06,90.2,M,-34.1,M,,*55
$GPGSA,A,3,18,51,20,05,02,23,29,13,46,15,,,1.95,1.06,1.64*0D
$PFLAA,3,2,116,4,1,C04E3F!FLR_C04E3F,270,,0,1.1,2*7B
$PFLAU,1,1,2,1,3,89,2,4,116*63
$PGRMZ,190,f,3*13
$GPRMC,153407.00,A,4506.29477,N,07537.42513,W,0.159,,241020,,,A*61
$GPGGA,153407.00,4506.29477,N,07537.42513,W,1,10,1.05,90.1,M,-34.1,M,,*53
$GPGSA,A,3,18,51,20,05,02,23,29,13,46,15,,,1.83,1.05,1.51*0F
$PFLAA,3,0,116,5,1,C04E3F!FLR_C04E3F,270,,0,1.1,2*78
$PFLAU,1,1,2,1,3,90,2,5,116*6A
$PGRMZ,188,f,3*1A
$GPRMC,153408.00,A,4506.29470,N,07537.42509,W,0.205,,241020,,,A*68
$GPGGA,153408.00,4506.29470,N,07537.42509,W,1,10,1.05,90.0,M,-34.1,M,,*51
$GPGSA,A,3,18,51,20,05,02,23,29,13,46,15,,,1.83,1.05,1.51*0F
$PFLAA,3,0,116,4,1,C04E3F!FLR_C04E3F,0,,0,0.9,2*75
$PFLAU,1,1,2,1,3,90,2,4,116*6B
$PGRMZ,191,f,3*12
$GPRMC,153409.00,A,4506.29466,N,07537.42507,W,0.115,,241020,,,A*62
$GPGGA,153409.00,4506.29466,N,07537.42507,W,1,10,1.05,89.8,M,-34.1,M,,*59
$GPGSA,A,3,18,51,20,05,02,23,29,13,46,15,,,1.83,1.05,1.51*0F
$PFLAA,3,0,116,4,1,C04E3F!FLR_C04E3F,0,,0,0.7,2*7B
$PFLAU,1,1,2,1,3,90,2,4,116*6B
$PGRMZ,189,f,3*1B
$GPRMC,153410.00,A,4506.29467,N,07537.42509,W,0.192,,241020,,,A*6A
$GPGGA,153410.00,4506.29467,N,07537.42509,W,1,10,1.05,89.6,M,-34.1,M,,*50
$GPGSA,A,3,18,51,20,05,02,23,29,13,46,15,,,1.83,1.05,1.51*0F
$PFLAA,3,0,116,4,1,C04E3F!FLR_C04E3F,0,,0,0.7,2*7B
$PFLAU,1,1,2,1,3,90,2,4,116*6B
$PGRMZ,185,f,3*17
$GPRMC,153411.00,A,4506.29461,N,07537.42518,W,0.140,,241020,,,A*62
$GPGGA,153411.00,4506.29461,N,07537.42518,W,1,10,1.05,89.4,M,-34.1,M,,*55
$GPGSA,A,3,18,51,20,05,02,23,29,13,46,15,,,1.83,1.05,1.51*0F
$PFLAA,3,0,116,5,1,C04E3F!FLR_C04E3F,0,,0,0.6,2*7B
$PFLAU,1,1,2,1,3,90,2,5,116*6A
$PGRMZ,185,f,3*17
$GPRMC,153412.00,A,4506.29452,N,07537.42518,W,0.049,,241020,,,A*69
$GPGGA,153412.00,4506.29452,N,07537.42518,W,1,10,1.05,89.3,M,-34.1,M,,*51
$GPGSA,A,3,18,51,20,05,02,23,29,13,46,15,,,1.83,1.05,1.51*0F
$PFLAA,3,0,116,5,1,C04E3F!FLR_C04E3F,0,,0,0.7,2*7A
$PFLAU,1,1,2,1,3,90,2,5,116*6A
$PGRMZ,183,f,3*11
$GPRMC,153413.00,A,4506.29440,N,07537.42519,W,0.291,,241020,,,A*6D
$GPGGA,153413.00,4506.29440,N,07537.42519,W,1,10,1.05,89.6,M,-34.1,M,,*57
$GPGSA,A,3,18,51,20,05,02,23,29,13,46,15,,,1.83,1.05,1.51*0F
$PFLAA,3,0,116,5,1,C04E3F!FLR_C04E3F,0,,0,0.8,2*75
$PFLAU,1,1,2,1,3,90,2,5,116*6A
$PGRMZ,183,f,3*11
$GPRMC,153414.00,A,4506.29426,N,07537.42519,W,0.088,,241020,,,A*60
$GPGGA,153414.00,4506.29426,N,07537.42519,W,1,10,1.05,89.8,M,-34.1,M,,*5E
$GPGSA,A,3,18,51,20,05,02,23,29,13,46,15,,,1.83,1.05,1.51*0F
$PFLAA,3,0,116,5,1,C04E3F!FLR_C04E3F,270,,0,0.7,2*7F
$PFLAU,1,1,2,1,3,90,2,5,116*6A
$PGRMZ,183,f,3*11
$GPRMC,153415.00,A,4506.29404,N,07537.42514,W,0.189,,241020,,,A*6C
$GPGGA,153415.00,4506.29404,N,07537.42514,W,1,10,1.05,90.1,M,-34.1,M,,*53
$GPGSA,A,3,18,51,20,05,02,23,29,13,46,15,,,1.83,1.05,1.51*0F
$PFLAA,3,0,116,5,1,C04E3F!FLR_C04E3F,270,,0,0.7,2*7F
$PFLAU,1,1,2,1,3,90,2,5,116*6A
$PGRMZ,185,f,3*17
$GPRMC,153416.00,A,4506.29412,N,07537.42525,W,0.116,,241020,,,A*6C
$GPGGA,153416.00,4506.29412,N,07537.42525,W,1,10,1.05,89.5,M,-34.1,M,,*59
$GPGSA,A,3,18,51,20,05,02,23,29,13,46,15,,,1.83,1.05,1.51*0F
$PFLAA,3,2,115,5,1,C04E3F!FLR_C04E3F,0,,0,0.8,2*74
$PFLAU,1,1,2,1,3,89,2,5,115*61
$PGRMZ,187,f,3*15
$GPRMC,153417.00,A,4506.29411,N,07537.42532,W,0.215,,241020,,,A*68
$GPGGA,153417.00,4506.29411,N,07537.42532,W,1,10,1.05,89.2,M,-34.1,M,,*5A
$GPGSA,A,3,18,51,20,05,02,23,29,13,46,15,,,1.83,1.05,1.51*0F
$PFLAA,3,2,115,5,1,C04E3F!FLR_C04E3F,0,,0,0.7,2*7B
$PFLAU,1,1,2,1,3,89,2,5,115*61
$PGRMZ,188,f,3*1A
$GPRMC,153418.00,A,4506.29409,N,07537.42537,W,0.134,,241020,,,A*6B
$GPGGA,153418.00,4506.29409,N,07537.42537,W,1,10,1.11,88.7,M,-34.1,M,,*58
$GPGSA,A,3,18,51,20,05,02,23,29,13,46,15,,,1.91,1.11,1.56*0E
$PFLAA,3,2,115,6,1,C04E3F!FLR_C04E3F,0,,0,0.6,2*79
$PFLAU,1,1,2,1,3,89,2,6,115*62
$PGRMZ,187,f,3*15
$GPRMC,153419.00,A,4506.29408,N,07537.42528,W,0.250,,241020,,,A*64
$GPGGA,153419.00,4506.29408,N,07537.42528,W,1,10,1.11,88.5,M,-34.1,M,,*54
$GPGSA,A,3,18,51,20,05,02,23,29,13,46,15,,,1.91,1.11,1.56*0E
$PFLAA,3,2,116,7,1,C04E3F!FLR_C04E3F,0,,0,0.6,2*7B
$PFLAU,1,1,2,1,3,89,2,7,116*60
$PGRMZ,188,f,3*1A
$GPRMC,153420.00,A,4506.29406,N,07537.42519,W,0.090,,241020,,,A*6C
$GPGGA,153420.00,4506.29406,N,07537.42519,W,1,10,1.11,88.4,M,-34.1,M,,*53
$GPGSA,A,3,18,51,20,05,02,23,29,13,46,15,,,1.91,1.11,1.56*0E
$PFLAA,3,2,116,7,1,C04E3F!FLR_C04E3F,0,,0,0.6,2*7B
$PFLAU,1,1,2,1,3,89,2,7,116*60
$PGRMZ,189,f,3*1B
$GPRMC,153421.00,A,4506.29405,N,07537.42516,W,0.265,,241020,,,A*69
$GPGGA,153421.00,4506.29405,N,07537.42516,W,1,10,1.11,88.5,M,-34.1,M,,*5F
$GPGSA,A,3,18,51,20,05,02,23,29,13,46,15,,,1.91,1.11,1.56*0E
$PFLAA,3,0,115,6,1,C04E3F!FLR_C04E3F,0,,0,0.7,2*7A
$PFLAU,1,1,2,1,3,90,2,6,115*6A
$PGRMZ,188,f,3*1A
$GPRMC,153422.00,A,4506.29402,N,07537.42513,W,0.304,,241020,,,A*6E
$GPGGA,153422.00,4506.29402,N,07537.42513,W,1,10,1.05,88.6,M,-34.1,M,,*58
$GPGSA,A,3,18,51,20,05,02,23,29,13,46,15,,,1.83,1.05,1.50*0E
$PFLAA,3,0,116,6,1,C04E3F!FLR_C04E3F,0,,0,0.6,2*78
$PFLAU,1,1,2,1,3,90,2,6,116*69
$PGRMZ,188,f,3*1A
$GPRMC,153423.00,A,4506.29403,N,07537.42520,W,0.252,,241020,,,A*6C
$GPGGA,153423.00,4506.29403,N,07537.42520,W,1,10,1.11,88.7,M,-34.1,M,,*5C
$GPGSA,A,3,18,51,20,05,02,23,29,13,46,15,,,1.91,1.11,1.56*0E
$PFLAA,3,0,116,5,1,C04E3F!FLR_C04E3F,0,,0,0.6,2*7B
$PFLAU,1,1,2,1,3,90,2,5,116*6A
$PGRMZ,187,f,3*15
$GPRMC,153424.00,A,4506.29395,N,07537.42523,W,0.286,,241020,,,A*69
$GPGGA,153424.00,4506.29395,N,07537.42523,W,1,10,1.11,88.8,M,-34.1,M,,*5F
$GPGSA,A,3,18,51,20,05,02,23,29,13,46,15,,,1.91,1.11,1.56*0E
$PFLAA,3,0,116,5,1,C04E3F!FLR_C04E3F,0,,0,0.6,2*7B
$PFLAU,1,1,2,1,3,90,2,5,116*6A
$PGRMZ,188,f,3*1A
$GPRMC,153425.00,A,4506.29379,N,07537.42521,W,0.155,,241020,,,A*65
$GPGGA,153425.00,4506.29379,N,07537.42521,W,1,10,1.05,89.3,M,-34.1,M,,*51
$GPGSA,A,3,18,51,20,05,02,23,29,13,46,15,,,1.83,1.05,1.50*0E
$PFLAA,3,2,116,4,1,C04E3F!FLR_C04E3F,270,,0,0.9,2*72
$PFLAU,1,1,2,1,3,89,2,4,116*63
$PGRMZ,188,f,3*1A
$GPRMC,153426.00,A,4506.29368,N,07537.42527,W,0.246,,241020,,,A*61
$GPGGA,153426.00,4506.29368,N,07537.42527,W,1,10,1.05,89.5,M,-34.1,M,,*52
$GPGSA,A,3,18,51,20,05,02,23,29,13,46,15,,,1.83,1.05,1.50*0E
$PFLAA,3,2,116,4,1,C04E3F!FLR_C04E3F,270,,0,0.8,2*73
$PFLAU,1,1,2,1,3,89,2,4,116*63
$PGRMZ,188,f,3*1A
$GPRMC,153427.00,A,4506.29360,N,07537.42534,W,0.199,,241020,,,A*6B
$GPGGA,153427.00,4506.29360,N,07537.42534,W,1,10,1.05,89.4,M,-34.1,M,,*58
$GPGSA,A,3,18,51,20,05,02,23,29,13,46,15,,,1.83,1.05,1.50*0E
$PFLAA,3,2,116,4,1,C04E3F!FLR_C04E3F,0,,0,0.7,2*79
$PFLAU,1,1,2,1,3,89,2,4,116*63
$PGRMZ,187,f,3*15
$GPRMC,153428.00,A,4506.29352,N,07537.42537,W,0.098,,241020,,,A*66
$GPGGA,153428.00,4506.29352,N,07537.42537,W,1,10,1.05,89.4,M,-34.1,M,,*55
$GPGSA,A,3,18,51,20,05,02,23,29,13,46,15,,,1.83,1.05,1.50*0E
$PFLAA,3,2,116,4,1,C04E3F!FLR_C04E3F,0,,0,0.7,2*79
$PFLAU,1,1,2,1,3,89,2,4,116*63
$PGRMZ,188,f,3*1A
$GPRMC,153429.00,A,4506.29340,N,07537.42537,W,0.223,,241020,,,A*66
$GPGGA,153429.00,4506.29340,N,07537.42537,W,1,10,1.05,90.0,M,-34.1,M,,*5B
$GPGSA,A,3,18,51,20,05,02,23,29,13,46,15,,,1.83,1.05,1.50*0E
$PFLAA,3,2,116,3,1,C04E3F!FLR_C04E3F,0,,0,0.5,2*7C
$PFLAU,1,1,2,1,3,89,2,3,116*64
$PGRMZ,187,f,3*15
$GPRMC,153430.00,A,4506.29323,N,07537.42532,W,0.037,,241020,,,A*69
$GPGGA,153430.00,4506.29323,N,07537.42532,W,1,10,1.05,90.6,M,-34.1,M,,*55
$GPGSA,A,3,18,51,20,05,02,23,29,13,46,15,,,1.83,1.05,1.50*0E
$PFLAA,3,2,116,2,1,C04E3F!FLR_C04E3F,0,,0,0.6,2*7E
$PFLAU,1,1,2,1,3,89,2,2,116*65
$PGRMZ,187,f,3*15
$GPRMC,153431.00,A,4506.29316,N,07537.42525,W,0.158,,241020,,,A*60
$GPGGA,153431.00,4506.29316,N,07537.42525,W,1,10,1.05,90.8,M,-34.1,M,,*5A
$GPGSA,A,3,18,51,20,05,02,23,29,13,46,15,,,1.83,1.05,1.50*0E
$PFLAA,3,2,116,2,1,C04E3F!FLR_C04E3F,0,,0,0.6,2*7E
$PFLAU,1,1,2,1,3,89,2,2,116*65
$PGRMZ,189,f,3*1B
$GPRMC,153432.00,A,4506.29312,N,07537.42514,W,0.102,,241020,,,A*6A
$GPGGA,153432.00,4506.29312,N,07537.42514,W,1,10,1.05,91.1,M,-34.1,M,,*57
$GPGSA,A,3,18,51,20,05,02,23,29,13,46,15,,,1.83,1.05,1.50*0E
$PFLAA,3,2,116,1,1,C04E3F!FLR_C04E3F,0,,0,0.4,2*7F
$PFLAU,1,1,2,1,3,89,2,1,116*66
$PGRMZ,190,f,3*13
$GPRMC,153433.00,A,4506.29313,N,07537.42507,W,0.044,,241020,,,A*6B
$GPGGA,153433.00,4506.29313,N,07537.42507,W,1,10,1.05,91.2,M,-34.1,M,,*56
$GPGSA,A,3,18,51,20,05,02,23,29,13,46,15,,,1.83,1.05,1.50*0E
$PFLAA,3,2,114,1,1,C04E3F!FLR_C04E3F,0,,0,0.7,2*7E
$PFLAU,1,1,2,1,3,89,2,1,115*65
$PGRMZ,189,f,3*1B
$GPRMC,153434.00,A,4506.29313,N,07537.42500,W,0.053,,241020,,,A*6D
$GPGGA,153434.00,4506.29313,N,07537.42500,W,1,10,1.05,91.1,M,-34.1,M,,*55
$GPGSA,A,3,18,51,20,05,02,23,29,13,46,15,,,1.83,1.05,1.50*0E
$PFLAA,3,2,114,2,1,C04E3F!FLR_C04E3F,0,,0,0.5,2*7F
$PFLAU,1,1,2,1,3,89,2,2,115*66
$PGRMZ,191,f,3*12
$GPRMC,153435.00,A,4506.29327,N,07537.42507,W,0.203,,241020,,,A*6B
$GPGGA,153435.00,4506.29327,N,07537.42507,W,1,10,1.05,90.7,M,-34.1,M,,*53
$GPGSA,A,3,18,51,20,05,02,23,29,13,46,15,,,1.83,1.05,1.50*0E
$PFLAA,3,2,114,1,1,C04E3F!FLR_C04E3F,0,,0,0.6,2*7F
$PFLAU,1,1,2,1,3,89,2,1,115*65
$PGRMZ,187,f,3*15
$GPRMC,153436.00,A,4506.29333,N,07537.42507,W,0.021,,241020,,,A*6F
$GPGGA,153436.00,4506.29333,N,07537.42507,W,1,10,1.05,90.5,M,-34.1,M,,*57
$GPGSA,A,3,18,51,20,05,02,23,29,13,46,15,,,1.83,1.05,1.50*0E
$PFLAA,3,2,114,1,1,C04E3F!FLR_C04E3F,0,,0,0.6,2*7F
$PFLAU,1,1,2,1,3,89,2,1,115*65
$PGRMZ,188,f,3*1A
$GPRMC,153437.00,A,4506.29341,N,07537.42511,W,0.080,,241020,,,A*67
$GPGGA,153437.00,4506.29341,N,07537.42511,W,1,10,1.05,90.2,M,-34.1,M,,*53
$GPGSA,A,3,18,51,20,05,02,23,29,13,46,15,,,1.83,1.05,1.50*0E
$PFLAA,3,4,114,1,1,C04E3F!FLR_C04E3F,270,,0,0.9,2*73
$PFLAU,1,1,2,1,3,88,2,1,115*64
$PGRMZ,185,f,3*17
$GPRMC,153438.00,A,4506.29355,N,07537.42512,W,0.122,,241020,,,A*67
$GPGGA,153438.00,4506.29355,N,07537.42512,W,1,10,1.05,89.7,M,-34.1,M,,*57
$GPGSA,A,3,18,51,20,05,02,23,29,13,46,15,,,1.83,1.05,1.50*0E
$PFLAA,3,2,116,2,1,C04E3F!FLR_C04E3F,0,,0,0.7,2*7F
$PFLAU,1,1,2,1,3,89,2,2,116*65
$PGRMZ,187,f,3*15
$GPRMC,153439.00,A,4506.29373,N,07537.42506,W,0.239,,241020,,,D*6B
$GPGGA,153439.00,4506.29373,N,07537.42506,W,2,10,1.05,89.2,M,-34.1,M,,0000*51
$GPGSA,A,3,18,51,20,05,02,23,29,13,46,15,,,1.83,1.05,1.50*0E
$PGRMZ,187,f,3*15
$PFLAA,3,2,116,2,1,C04E3F!FLR_C04E3F,0,,0,0.6,2*7E
$PFLAU,1,1,2,1,3,89,2,2,116*65
$GPRMC,153440.00,A,4506.29398,N,07537.42506,W,0.257,,241020,,,D*68
$GPGGA,153440.00,4506.29398,N,07537.42506,W,2,10,1.05,88.6,M,-34.1,M,,0000*5F
$GPGSA,A,3,18,51,20,05,02,23,29,13,46,15,,,1.83,1.05,1.50*0E
$PGRMZ,186,f,3*14
$PFLAA,3,2,116,1,1,C04E3F!FLR_C04E3F,0,,0,0.4,2*7F
$PFLAU,1,1,2,1,3,89,2,1,116*66
$GPRMC,153441.00,A,4506.29416,N,07537.42505,W,0.149,,241020,,,D*67
$GPGGA,153441.00,4506.29416,N,07537.42505,W,2,10,1.05,88.2,M,-34.1,M,,0000*58
$GPGSA,A,3,18,51,20,05,02,23,29,13,46,15,,,1.83,1.05,1.50*0E
$PGRMZ,187,f,3*15
$PFLAA,3,0,116,2,1,C04E3F!FLR_C04E3F,0,,0,0.5,2*7F
$PFLAU,1,1,2,1,3,90,2,2,116*6D
$GPRMC,153442.00,A,4506.29428,N,07537.42507,W,0.079,,241020,,,D*69
$GPGGA,153442.00,4506.29428,N,07537.42507,W,2,10,1.05,87.9,M,-34.1,M,,0000*50
$GPGSA,A,3,18,51,20,05,02,23,29,13,46,15,,,1.83,1.05,1.50*0E
$PGRMZ,186,f,3*14
$PFLAA,3,0,116,3,1,C04E3F!FLR_C04E3F,0,,0,0.6,2*7D
$PFLAU,1,1,2,1,3,90,2,3,116*6C
$GPRMC,153443.00,A,4506.29430,N,07537.42504,W,0.175,,241020,,,D*6F
$GPGGA,153443.00,4506.29430,N,07537.42504,W,2,10,1.05,87.9,M,-34.1,M,,0000*5B
$GPGSA,A,3,18,51,20,05,02,23,29,13,46,15,,,1.83,1.05,1.50*0E
$PGRMZ,183,f,3*11
$PFLAA,3,0,116,3,1,C04E3F!FLR_C04E3F,0,,0,0.6,2*7D
$PFLAU,1,1,2,1,3,90,2,3,116*6C
$GPRMC,153444.00,A,4506.29431,N,07537.42500,W,0.138,,241020,,,D*64
$GPGGA,153444.00,4506.29431,N,07537.42500,W,2,10,1.05,88.2,M,-34.1,M,,0000*5D
$GPGSA,A,3,18,51,20,05,02,23,29,13,46,15,,,1.83,1.05,1.50*0E
$PGRMZ,181,f,3*13
$PFLAA,3,0,116,3,1,C04E3F!FLR_C04E3F,0,,0,0.5,2*7E
$PFLAU,1,1,2,1,3,90,2,3,116*6C
$GPRMC,153445.00,A,4506.29428,N,07537.42498,W,0.398,,241020,,,D*65
$GPGGA,153445.00,4506.29428,N,07537.42498,W,2,10,1.05,88.5,M,-34.1,M,,0000*53
$GPGSA,A,3,18,51,20,05,02,23,29,13,46,15,,,1.83,1.05,1.50*0E
$PGRMZ,180,f,3*12
$PFLAA,3,2,116,3,1,C04E3F!FLR_C04E3F,0,,0,0.8,2*71
$PFLAU,1,1,2,1,3,89,2,3,116*64
$GPRMC,153446.00,A,4506.29425,N,07537.42497,W,0.019,,241020,,,D*6E
$GPGGA,153446.00,4506.29425,N,07537.42497,W,2,10,1.05,88.5,M,-34.1,M,,0000*52
$GPGSA,A,3,18,51,20,05,02,23,29,13,46,15,,,1.83,1.05,1.50*0E
$PGRMZ,173,f,3*1E
$PFLAA,3,2,116,3,1,C04E3F!FLR_C04E3F,0,,0,0.6,2*7F
$PFLAU,1,1,2,1,3,89,2,3,116*64
$GPRMC,153447.00,A,4506.29420,N,07537.42501,W,0.168,,241020,,,D*63
$GPGGA,153447.00,4506.29420,N,07537.42501,W,2,10,1.05,88.5,M,-34.1,M,,0000*58
$GPGSA,A,3,18,51,20,05,02,23,29,13,46,15,,,1.83,1.05,1.50*0E
$PGRMZ,170,f,3*1D
$PFLAA,3,2,116,4,1,C04E3F!FLR_C04E3F,0,,0,0.5,2*7B
$PFLAU,1,1,2,1,3,89,2,4,116*63
$GPRMC,153448.00,A,4506.29412,N,07537.42505,W,0.065,,241020,,,D*65
$GPGGA,153448.00,4506.29412,N,07537.42505,W,2,10,1.05,88.7,M,-34.1,M,,0000*50
$GPGSA,A,3,18,51,20,05,02,23,29,13,46,15,,,1.83,1.05,1.50*0E
$PGRMZ,166,f,3*1A
$PFLAA,3,2,116,2,1,C04E3F!FLR_C04E3F,0,,0,0.4,2*7C
$PFLAU,1,1,2,1,3,89,2,2,116*65
$GPRMC,153449.00,A,4506.29407,N,07537.42506,W,0.114,,241020,,,D*64
$GPGGA,153449.00,4506.29407,N,07537.42506,W,2,10,1.05,88.8,M,-34.1,M,,0000*59
$GPGSA,A,3,18,51,20,05,02,23,29,13,46,15,,,1.83,1.05,1.50*0E
$PGRMZ,165,f,3*19
$PFLAA,3,2,116,4,1,C04E3F!FLR_C04E3F,0,,0,0.7,2*79
$PFLAU,1,1,2,1,3,89,2,4,116*63
$GPRMC,153450.00,A,4506.29402,N,07537.42511,W,0.097,,241020,,,D*65
$GPGGA,153450.00,4506.29402,N,07537.42511,W,2,10,1.05,88.7,M,-34.1,M,,0000*5D
$GPGSA,A,3,18,51,20,05,02,23,29,13,46,15,,,1.83,1.05,1.50*0E
$PGRMZ,164,f,3*18
$PFLAA,3,2,116,4,1,C04E3F!FLR_C04E3F,0,,0,0.7,2*79
$PFLAU,1,1,2,1,3,89,2,4,116*63
$GPRMC,153451.00,A,4506.29393,N,07537.42514,W,0.184,,241020,,,D*6D
$GPGGA,153451.00,4506.29393,N,07537.42514,W,2,10,1.05,88.7,M,-34.1,M,,0000*56
$GPGSA,A,3,18,51,20,05,02,23,29,13,46,15,,,1.83,1.05,1.50*0E
$PGRMZ,167,f,3*1B
$PFLAA,3,2,116,2,1,C04E3F!FLR_C04E3F,0,,0,0.2,2*7A
$PFLAU,1,1,2,1,3,89,2,2,116*65
$GPRMC,153452.00,A,4506.29395,N,07537.42515,W,0.196,,241020,,,D*6A
$GPGGA,153452.00,4506.29395,N,07537.42515,W,2,10,1.05,88.6,M,-34.1,M,,0000*53
$GPGSA,A,3,18,51,20,05,02,23,29,13,46,15,,,1.83,1.05,1.50*0E
$PGRMZ,165,f,3*19
$PFLAA,3,2,116,2,1,C04E3F!FLR_C04E3F,0,,0,0.4,2*7C
$PFLAU,1,1,2,1,3,89,2,2,116*65
$GPRMC,153453.00,A,4506.29408,N,07537.42513,W,0.059,,241020,,,D*6C
$GPGGA,153453.00,4506.29408,N,07537.42513,W,2,10,1.05,88.7,M,-34.1,M,,0000*56
$GPGSA,A,3,18,51,20,05,02,23,29,13,46,15,,,1.83,1.05,1.50*0E
$PGRMZ,165,f,3*19
$PFLAA,3,2,116,2,1,C04E3F!FLR_C04E3F,0,,0,0.4,2*7C
$PFLAU,1,1,2,1,3,89,2,2,116*65
$GPRMC,153454.00,A,4506.29427,N,07537.42522,W,0.676,,241020,,,D*6F
$GPGGA,153454.00,4506.29427,N,07537.42522,W,2,10,1.10,88.5,M,-34.1,M,,0000*58
$GPGSA,A,3,18,51,20,05,02,23,29,13,46,15,,,1.92,1.10,1.57*0D
$PGRMZ,163,f,3*1F
$PFLAA,3,2,116,3,1,C04E3F!FLR_C04E3F,0,,0,0.4,2*7D
$PFLAU,1,1,2,1,3,89,2,3,116*64
$GPRMC,153455.00,A,4506.29449,N,07537.42527,W,0.171,,241020,,,D*63
$GPGGA,153455.00,4506.29449,N,07537.42527,W,2,10,1.05,88.4,M,-34.1,M,,0000*51
$GPGSA,A,3,18,51,20,05,02,23,29,13,46,15,,,1.83,1.05,1.50*0E
$PGRMZ,166,f,3*1A
$PFLAA,3,0,116,4,1,C04E3F!FLR_C04E3F,0,,0,0.6,2*7A
$PFLAU,1,1,2,1,3,90,2,4,116*6B
$GPRMC,153456.00,A,4506.29460,N,07537.42528,W,0.137,,241020,,,D*66
$GPGGA,153456.00,4506.29460,N,07537.42528,W,2,10,1.05,88.5,M,-34.1,M,,0000*57
$GPGSA,A,3,18,51,20,05,02,23,29,13,46,15,,,1.83,1.05,1.50*0E
$PGRMZ,169,f,3*15
$PFLAA,3,0,116,4,1,C04E3F!FLR_C04E3F,0,,0,0.5,2*79
$PFLAU,1,1,2,1,3,90,2,4,116*6B
$GPRMC,153457.00,A,4506.29471,N,07537.42525,W,0.051,,241020,,,D*6B
$GPGGA,153457.00,4506.29471,N,07537.42525,W,2,10,1.05,88.6,M,-34.1,M,,0000*58
$GPGSA,A,3,18,51,20,05,02,23,29,13,46,15,,,1.83,1.05,1.50*0E
$PGRMZ,170,f,3*1D
$PFLAA,3,0,116,5,1,C04E3F!FLR_C04E3F,0,,0,0.7,2*7A
$PFLAU,1,1,2,1,3,90,2,5,116*6A
$GPRMC,153458.00,A,4506.29475,N,07537.42519,W,0.211,,241020,,,D*69
$GPGGA,153458.00,4506.29475,N,07537.42519,W,2,10,1.05,88.7,M,-34.1,M,,0000*5D
$GPGSA,A,3,18,51,20,05,02,23,29,13,46,15,,,1.83,1.05,1.50*0E
$PGRMZ,173,f,3*1E
$PFLAA,3,0,116,5,1,C04E3F!FLR_C04E3F,0,,0,0.5,2*78
$PFLAU,1,1,2,1,3,90,2,5,116*6A
$GPRMC,153459.00,A,4506.29471,N,07537.42519,W,0.106,,241020,,,D*69
$GPGGA,153459.00,4506.29471,N,07537.42519,W,2,10,1.05,89.1,M,-34.1,M,,0000*5F
$GPGSA,A,3,18,51,20,05,02,23,29,13,46,15,,,1.83,1.05,1.50*0E
$PGRMZ,171,f,3*1C
$PFLAA,3,0,116,6,1,C04E3F!FLR_C04E3F,0,,0,0.7,2*79
$PFLAU,1,1,2,1,3,90,2,6,116*69
$GPRMC,153500.00,A,4506.29467,N,07537.42520,W,0.065,,241020,,,D*6D
$GPGGA,153500.00,4506.29467,N,07537.42520,W,2,10,1.05,89.2,M,-34.1,M,,0000*5C
$GPGSA,A,3,18,51,20,05,02,23,29,13,46,15,,,1.83,1.05,1.50*0E
$PGRMZ,173,f,3*1E
$PFLAA,3,0,115,6,1,C04E3F!FLR_C04E3F,0,,0,0.5,2*78
$PFLAU,1,1,2,1,3,90,2,6,115*6A
$GPRMC,153501.00,A,4506.29463,N,07537.42522,W,0.021,,241020,,,D*6A
$GPGGA,153501.00,4506.29463,N,07537.42522,W,2,10,1.05,89.2,M,-34.1,M,,0000*5B
$GPGSA,A,3,18,51,20,05,02,23,29,13,46,15,,,1.83,1.05,1.50*0E
$PGRMZ,170,f,3*1D
$PFLAA,3,0,115,6,1,C04E3F!FLR_C04E3F,0,,0,0.6,2*7B
$PFLAU,1,1,2,1,3,90,2,6,115*6A
$GPRMC,153502.00,A,4506.29463,N,07537.42524,W,0.146,,241020,,,D*6F
$GPGGA,153502.00,4506.29463,N,07537.42524,W,2,10,1.05,89.1,M,-34.1,M,,0000*5D
$GPGSA,A,3,18,51,20,05,02,23,29,13,46,15,,,1.83,1.05,1.50*0E
$PGRMZ,169,f,3*15
$PFLAA,3,0,115,7,1,C04E3F!FLR_C04E3F,0,,0,0.6,2*7A
$PFLAU,1,1,2,1,3,90,2,7,115*6B
$GPRMC,153503.00,A,4506.29463,N,07537.42525,W,0.073,,241020,,,D*68
$GPGGA,153503.00,4506.29463,N,07537.42525,W,2,10,1.05,89.0,M,-34.1,M,,0000*5C
$GPGSA,A,3,18,51,20,05,02,23,29,13,46,15,,,1.83,1.05,1.50*0E
$PGRMZ,168,f,3*14
$PFLAA,3,0,115,5,1,C04E3F!FLR_C04E3F,0,,0,0.3,2*7D
$PFLAU,1,1,2,1,3,90,2,5,115*69
$GPRMC,153504.00,A,4506.29468,N,07537.42527,W,0.081,,241020,,,D*6B
$GPGGA,153504.00,4506.29468,N,07537.42527,W,2,10,1.05,88.6,M,-34.1,M,,0000*55
$GPGSA,A,3,18,51,20,05,02,23,29,13,46,15,,,1.83,1.05,1.50*0E
$PGRMZ,168,f,3*14
$PFLAA,3,0,115,6,1,C04E3F!FLR_C04E3F,0,,0,0.5,2*78
$PFLAU,1,1,2,1,3,90,2,6,115*6A
$GPRMC,153505.00,A,4506.29487,N,07537.42523,W,0.139,,241020,,,D*6D
$GPGGA,153505.00,4506.29487,N,07537.42523,W,2,10,1.05,88.2,M,-34.1,M,,0000*55
$GPGSA,A,3,18,51,20,05,02,23,29,13,46,15,,,1.83,1.05,1.50*0E
$PGRMZ,165,f,3*19
$PFLAA,3,-2,115,6,1,C04E3F!FLR_C04E3F,0,,0,0.6,2*54
$PFLAU,1,1,2,1,3,91,2,6,115*6B
$GPRMC,153506.00,A,4506.29508,N,07537.42517,W,0.134,,241020,,,D*62
$GPGGA,153506.00,4506.29508,N,07537.42517,W,2,10,1.05,87.7,M,-34.1,M,,0000*5D
$GPGSA,A,3,18,51,20,05,02,23,29,13,46,15,,,1.83,1.05,1.50*0E
$PGRMZ,164,f,3*18
$PFLAA,3,-2,115,6,1,C04E3F!FLR_C04E3F,0,,0,0.4,2*56
$PFLAU,1,1,2,1,3,91,2,6,115*6B
$GPRMC,153507.00,A,4506.29526,N,07537.42509,W,0.131,,241020,,,D*65
$GPGGA,153507.00,4506.29526,N,07537.42509,W,2,10,1.05,87.4,M,-34.1,M,,0000*5C
$GPGSA,A,3,18,51,20,05,02,23,29,13,46,15,,,1.83,1.05,1.50*0E
$PGRMZ,162,f,3*1E
$PFLAA,3,-2,115,7,1,C04E3F!FLR_C04E3F,0,,0,0.5,2*56
$PFLAU,1,1,2,1,3,91,2,7,115*6A
