$PGRMZ,-112,f,3*34
$GPRMC,151611.00,V,,,,,,,251020,,,N*7A
$GPGGA,151611.00,0000.0000,N,00000.0000,E,0,00,100.0,0.0,M,0.0,M,,*5F
$GPGSA,A,1,,,,,,,,,,,,,99.99,99.99,99.99*30
$PGRMZ,-111,f,3*37
$GPRMC,151612.00,V,,,,,,,251020,,,N*79
$GPGGA,151612.00,0000.0000,N,00000.0000,E,0,00,100.0,0.0,M,0.0,M,,*5C
$GPGSA,A,1,,,,,,,,,,,,,99.99,99.99,99.99*30
$PGRMZ,-111,f,3*37
$GPRMC,151613.00,V,,,,,,,251020,,,N*78
$GPGGA,151613.00,0000.0000,N,00000.0000,E,0,00,100.0,0.0,M,0.0,M,,*5D
$GPGSA,A,1,,,,,,,,,,,,,99.99,99.99,99.99*30
$PGRMZ,-113,f,3*35
$GPRMC,151614.00,V,,,,,,,251020,,,N*7F
$GPGGA,151614.00,0000.0000,N,00000.0000,E,0,00,100.0,0.0,M,0.0,M,,*5A
$GPGSA,A,1,,,,,,,,,,,,,99.99,99.99,99.99*30
$PGRMZ,-113,f,3*35
$GPRMC,151615.00,V,,,,,,,251020,,,N*7E
$GPGGA,151615.00,0000.0000,N,00000.0000,E,0,00,100.0,0.0,M,0.0,M,,*5B
$GPGSA,A,1,,,,,,,,,,,,,99.99,99.99,99.99*30
$PGRMZ,-113,f,3*35
$GPRMC,151616.00,V,,,,,,,251020,,,N*7D
$GPGGA,151616.00,0000.0000,N,00000.0000,E,0,00,100.0,0.0,M,0.0,M,,*58
$GPGSA,A,1,,,,,,,,,,,,,99.99,99.99,99.99*30
$PGRMZ,-111,f,3*37
$GPRMC,151617.00,V,,,,,,,251020,,,N*7C
$GPGGA,151617.00,0000.0000,N,00000.0000,E,0,00,100.0,0.0,M,0.0,M,,*59
$GPGSA,A,1,,,,,,,,,,,,,99.99,99.99,99.99*30
$PGRMZ,-112,f,3*34
$GPRMC,151618.00,V,,,,,,,251020,,,N*73
$GPGGA,151618.00,0000.0000,N,00000.0000,E,0,00,100.0,0.0,M,0.0,M,,*56
$GPGSA,A,1,,,,,,,,,,,,,99.99,99.99,99.99*30
$PGRMZ,-111,f,3*37
$GPRMC,151619.00,V,,,,,,,251020,,,N*72
$GPGGA,151619.00,0000.0000,N,00000.0000,E,0,00,100.0,0.0,M,0.0,M,,*57
$GPGSA,A,1,,,,,,,,,,,,,99.99,99.99,99.99*30
$PGRMZ,-110,f,3*36
$GPRMC,151620.00,V,,,,,,,251020,,,N*78
$GPGGA,151620.00,0000.0000,N,00000.0000,E,0,00,100.0,0.0,M,0.0,M,,*5D
$GPGSA,A,1,,,,,,,,,,,,,99.99,99.99,99.99*30
$PGRMZ,-114,f,3*32
$GPRMC,151621.00,A,4506.05316,N,07538.01642,W,0.151,,251020,,,A*6D
$GPGGA,151621.00,4506.05316,N,07538.01642,W,1,08,1.56,95.1,M,-34.2,M,,*5F
$GPGSA,A,3,30,18,29,07,20,23,13,15,,,,,2.41,1.56,1.83*0E
$PFLAU,0,1,2,1,0,0,2,0,2147483647*68
$PGRMZ,-111,f,3*37
$GPRMC,151622.00,A,4506.05346,N,07538.01636,W,0.040,,251020,,,A*69
$GPGGA,151622.00,4506.05346,N,07538.01636,W,1,07,1.56,95.4,M,-34.2,M,,*50
$GPGSA,A,3,30,18,07,20,23,13,15,,,,,,2.41,1.56,1.83*05
$PFLAU,0,1,2,1,0,0,2,0,2147483647*68
$PGRMZ,-110,f,3*36
$GPRMC,151623.00,A,4506.05348,N,07538.01636,W,0.122,,251020,,,A*63
$GPGGA,151623.00,4506.05348,N,07538.01636,W,1,07,1.56,95.4,M,-34.2,M,,*5F
$GPGSA,A,3,30,18,07,20,23,13,15,,,,,,2.41,1.56,1.83*05
$PFLAU,0,1,2,1,0,0,2,0,2147483647*68
$PGRMZ,-112,f,3*34
$GPRMC,151624.00,A,4506.05347,N,07538.01634,W,0.232,,251020,,,A*6B
$GPGGA,151624.00,4506.05347,N,07538.01634,W,1,07,1.56,95.4,M,-34.2,M,,*55
$GPGSA,A,3,30,18,07,20,23,13,15,,,,,,2.41,1.56,1.83*05
$PFLAU,0,1,2,1,0,0,2,0,2147483647*68
$PGRMZ,-112,f,3*34
$GPRMC,151625.00,A,4506.05358,N,07538.01629,W,0.220,,251020,,,A*6B
$GPGGA,151625.00,4506.05358,N,07538.01629,W,1,07,1.56,95.6,M,-34.2,M,,*54
$GPGSA,A,3,30,18,07,20,23,13,15,,,,,,2.41,1.56,1.83*05
$PFLAU,0,1,2,1,0,0,2,0,2147483647*68
$PGRMZ,-113,f,3*35
$GPRMC,151626.00,A,4506.05365,N,07538.01634,W,0.113,,251020,,,A*69
$GPGGA,151626.00,4506.05365,N,07538.01634,W,1,07,1.63,95.8,M,-34.2,M,,*5D
$GPGSA,A,3,30,18,07,20,23,13,15,,,,,,2.51,1.63,1.92*02
$PFLAU,0,1,2,1,0,0,2,0,2147483647*68
$PGRMZ,-111,f,3*37
$GPRMC,151627.00,A,4506.05373,N,07538.01643,W,0.048,,251020,,,A*60
$GPGGA,151627.00,4506.05373,N,07538.01643,W,1,07,1.63,95.9,M,-34.2,M,,*5A
$GPGSA,A,3,30,18,07,20,23,13,15,,,,,,2.51,1.63,1.92*02
$PFLAU,0,1,2,1,0,0,2,0,2147483647*68
$PGRMZ,-110,f,3*36
$GPRMC,151628.00,A,4506.05385,N,07538.01641,W,0.213,,251020,,,A*68
$GPGGA,151628.00,4506.05385,N,07538.01641,W,1,09,1.50,96.1,M,-34.2,M,,*5B
$GPGSA,A,3,30,18,29,05,07,20,23,13,15,,,,2.43,1.50,1.91*0C
$PFLAU,0,1,2,1,0,0,2,0,2147483647*68
$PGRMZ,-112,f,3*34
$GPRMC,151629.00,A,4506.05393,N,07538.01638,W,0.135,,251020,,,A*67
$GPGGA,151629.00,4506.05393,N,07538.01638,W,1,09,1.50,96.2,M,-34.2,M,,*50
$GPGSA,A,3,30,18,29,05,07,20,23,13,15,,,,2.43,1.50,1.91*0C
$PFLAU,0,1,2,1,0,0,2,0,2147483647*68
$PGRMZ,-110,f,3*36
$GPRMC,151630.00,A,4506.05399,N,07538.01642,W,0.151,,251020,,,A*6A
$GPGGA,151630.00,4506.05399,N,07538.01642,W,1,09,1.50,96.4,M,-34.2,M,,*59
$GPGSA,A,3,30,18,29,05,07,20,23,13,15,,,,2.43,1.50,1.91*0C
$PFLAU,0,1,2,1,0,0,2,0,2147483647*68
$PGRMZ,-112,f,3*34
$GPRMC,151631.00,A,4506.05400,N,07538.01647,W,0.393,,251020,,,A*65
$GPGGA,151631.00,4506.05400,N,07538.01647,W,1,09,1.50,96.4,M,-34.2,M,,*5A
$GPGSA,A,3,30,18,29,05,07,20,23,13,15,,,,2.43,1.50,1.91*0C
$PFLAU,0,1,2,1,0,0,2,0,2147483647*68
$PGRMZ,-110,f,3*36
$GPRMC,151632.00,A,4506.05403,N,07538.01655,W,0.734,356.12,251020,,,A*72
$GPGGA,151632.00,4506.05403,N,07538.01655,W,1,09,1.50,96.5,M,-34.2,M,,*58
$GPGSA,A,3,30,18,29,05,07,20,23,13,15,,,,2.43,1.50,1.91*0C
$PFLAU,0,1,2,1,0,0,2,0,2147483647*68
$PGRMZ,-108,f,3*3F
$GPRMC,151633.00,A,4506.05412,N,07538.01664,W,0.501,,251020,,,A*68
$GPGGA,151633.00,4506.05412,N,07538.01664,W,1,09,1.50,96.7,M,-34.2,M,,*59
$GPGSA,A,3,30,18,29,05,07,20,23,13,15,,,,2.43,1.50,1.91*0C
$PFLAU,0,1,2,1,0,0,2,0,2147483647*68
$PGRMZ,-110,f,3*36
$GPRMC,151634.00,A,4506.05407,N,07538.01676,W,0.173,,251020,,,A*69
$GPGGA,151634.00,4506.05407,N,07538.01676,W,1,09,1.50,96.5,M,-34.2,M,,*5B
$GPGSA,A,3,30,18,29,05,07,20,23,13,15,,,,2.43,1.50,1.91*0C
$PFLAU,0,1,2,1,0,0,2,0,2147483647*68
$PGRMZ,-111,f,3*37
$GPRMC,151635.00,A,4506.05397,N,07538.01683,W,0.245,,251020,,,A*6A
$GPGGA,151635.00,4506.05397,N,07538.01683,W,1,09,1.50,96.2,M,-34.2,M,,*59
$GPGSA,A,3,30,18,29,05,07,20,23,13,15,,,,2.43,1.50,1.91*0C
$PFLAU,0,1,2,1,0,0,2,0,2147483647*68
$PGRMZ,-110,f,3*36
$GPRMC,151636.00,A,4506.05387,N,07538.01692,W,0.227,,251020,,,A*6C
$GPGGA,151636.00,4506.05387,N,07538.01692,W,1,09,1.50,96.0,M,-34.2,M,,*59
$GPGSA,A,3,30,18,29,05,07,20,23,13,15,,,,2.43,1.50,1.91*0C
$PFLAU,0,1,2,1,0,0,2,0,2147483647*68
$PGRMZ,-110,f,3*36
$GPRMC,151637.00,A,4506.05378,N,07538.01705,W,0.241,,251020,,,A*62
$GPGGA,151637.00,4506.05378,N,07538.01705,W,1,09,1.50,95.7,M,-34.2,M,,*53
$GPGSA,A,3,30,18,29,05,07,20,23,13,15,,,,2.43,1.50,1.91*0C
$PFLAU,0,1,2,1,0,0,2,0,2147483647*68
$PGRMZ,-111,f,3*37
$GPRMC,151638.00,A,4506.05371,N,07538.01709,W,0.180,,251020,,,A*66
$GPGGA,151638.00,4506.05371,N,07538.01709,W,1,09,1.50,95.6,M,-34.2,M,,*58
$GPGSA,A,3,30,18,29,05,07,20,23,13,15,,,,2.43,1.50,1.91*0C
$PFLAU,0,1,2,1,0,0,2,0,2147483647*68
$PGRMZ,-107,f,3*30
$GPRMC,151639.00,A,4506.05370,N,07538.01713,W,0.082,,251020,,,A*6E
$GPGGA,151639.00,4506.05370,N,07538.01713,W,1,09,1.50,95.6,M,-34.2,M,,*53
$GPGSA,A,3,30,18,29,05,07,20,23,13,15,,,,2.43,1.50,1.91*0C
$PFLAU,0,1,2,1,0,0,2,0,2147483647*68
$PGRMZ,-108,f,3*3F
$GPRMC,151640.00,A,4506.05367,N,07538.01713,W,0.246,,251020,,,A*6C
$GPGGA,151640.00,4506.05367,N,07538.01713,W,1,09,1.50,95.7,M,-34.2,M,,*5A
$GPGSA,A,3,30,18,29,05,07,20,23,13,15,,,,2.43,1.50,1.91*0C
$PFLAU,0,1,2,1,0,0,2,0,2147483647*68
$PGRMZ,-111,f,3*37
$GPRMC,151641.00,A,4506.05364,N,07538.01712,W,0.057,,251020,,,A*6D
$GPGGA,151641.00,4506.05364,N,07538.01712,W,1,09,1.50,95.7,M,-34.2,M,,*59
$GPGSA,A,3,30,18,29,05,07,20,23,13,15,,,,2.43,1.50,1.91*0C
$PFLAU,0,1,2,1,0,0,2,0,2147483647*68
$PGRMZ,-110,f,3*36
$GPRMC,151642.00,A,4506.05361,N,07538.01713,W,0.051,,251020,,,A*6C
$GPGGA,151642.00,4506.05361,N,07538.01713,W,1,09,1.50,95.6,M,-34.2,M,,*5F
$GPGSA,A,3,30,18,29,05,07,20,23,13,15,,,,2.43,1.50,1.91*0C
$PFLAU,0,1,2,1,0,0,2,0,2147483647*68
$PGRMZ,-109,f,3*3E
$GPRMC,151643.00,A,4506.05360,N,07538.01714,W,0.098,,251020,,,A*6E
$GPGGA,151643.00,4506.05360,N,07538.01714,W,1,09,1.50,95.7,M,-34.2,M,,*59
$GPGSA,A,3,30,18,29,05,07,20,23,13,15,,,,2.43,1.50,1.91*0C
$PFLAU,0,1,2,1,0,0,2,0,2147483647*68
$PGRMZ,-113,f,3*35
$GPRMC,151644.00,A,4506.05354,N,07538.01709,W,0.177,,251020,,,A*62
$GPGGA,151644.00,4506.05354,N,07538.01709,W,1,09,1.50,95.6,M,-34.2,M,,*54
$GPGSA,A,3,30,18,29,05,07,20,23,13,15,,,,2.43,1.50,1.91*0C
$PFLAU,0,1,2,1,0,0,2,0,2147483647*68
$PGRMZ,-107,f,3*30
$GPRMC,151645.00,A,4506.05351,N,07538.01706,W,0.121,,251020,,,A*6A
$GPGGA,151645.00,4506.05351,N,07538.01706,W,1,09,1.50,95.5,M,-34.2,M,,*5C
$GPGSA,A,3,30,18,29,05,07,20,23,13,15,,,,2.43,1.50,1.91*0C
$PFLAU,0,1,2,1,0,0,2,0,2147483647*68
$PGRMZ,-112,f,3*34
$GPRMC,151646.00,A,4506.05347,N,07538.01710,W,0.050,,251020,,,A*6E
$GPGGA,151646.00,4506.05347,N,07538.01710,W,1,09,1.50,95.4,M,-34.2,M,,*5E
$GPGSA,A,3,30,18,29,05,07,20,23,13,15,,,,2.43,1.50,1.91*0C
$PFLAU,0,1,2,1,0,0,2,0,2147483647*68
$PGRMZ,-111,f,3*37
$GPRMC,151647.00,A,4506.05344,N,07538.01711,W,0.028,,251020,,,A*62
$GPGGA,151647.00,4506.05344,N,07538.01711,W,1,09,1.50,95.2,M,-34.2,M,,*5B
$GPGSA,A,3,30,18,29,05,07,20,23,13,15,,,,2.43,1.50,1.91*0C
$PFLAU,0,1,2,1,0,0,2,0,2147483647*68
$PGRMZ,-109,f,3*3E
$GPRMC,151648.00,A,4506.05342,N,07538.01708,W,0.102,,251020,,,A*6A
$GPGGA,151648.00,4506.05342,N,07538.01708,W,1,09,1.50,95.0,M,-34.2,M,,*58
$GPGSA,A,3,30,18,29,05,07,20,23,13,15,,,,2.43,1.50,1.91*0C
$PFLAU,0,1,2,1,0,0,2,0,2147483647*68
$PGRMZ,-108,f,3*3F
$GPRMC,151649.00,A,4506.05338,N,07538.01707,W,0.073,,251020,,,A*6E
$GPGGA,151649.00,4506.05338,N,07538.01707,W,1,09,1.50,94.9,M,-34.2,M,,*53
$GPGSA,A,3,30,18,29,05,07,20,23,13,15,,,,2.43,1.50,1.91*0C
$PFLAU,0,1,2,1,0,0,2,0,2147483647*68
$PGRMZ,-106,f,3*31
$GPRMC,151650.00,A,4506.05335,N,07538.01708,W,0.011,,251020,,,A*60
$GPGGA,151650.00,4506.05335,N,07538.01708,W,1,09,1.50,94.8,M,-34.2,M,,*58
$GPGSA,A,3,30,18,29,05,07,20,23,13,15,,,,2.43,1.50,1.91*0C
$PFLAU,0,1,2,1,0,0,2,0,2147483647*68
$PGRMZ,-110,f,3*36
$GPRMC,151651.00,A,4506.05333,N,07538.01707,W,0.057,,251020,,,A*6A
$GPGGA,151651.00,4506.05333,N,07538.01707,W,1,09,1.50,94.7,M,-34.2,M,,*5F
$GPGSA,A,3,30,18,29,05,07,20,23,13,15,,,,2.43,1.50,1.91*0C
$PFLAU,0,1,2,1,0,0,2,0,2147483647*68
$PGRMZ,-108,f,3*3F
$GPRMC,151652.00,A,4506.05331,N,07538.01706,W,0.139,,251020,,,A*63
$GPGGA,151652.00,4506.05331,N,07538.01706,W,1,09,1.47,94.7,M,-34.2,M,,*59
$GPGSA,A,3,30,18,29,05,07,20,23,13,15,,,,2.41,1.47,1.91*08
$PFLAU,0,1,2,1,0,0,2,0,2147483647*68
$PGRMZ,-109,f,3*3E
$GPRMC,151653.00,A,4506.05328,N,07538.01705,W,0.061,,251020,,,A*65
$GPGGA,151653.00,4506.05328,N,07538.01705,W,1,09,1.47,94.9,M,-34.2,M,,*5D
$GPGSA,A,3,30,18,29,05,07,20,23,13,15,,,,2.41,1.47,1.91*08
$PFLAU,0,1,2,1,0,0,2,0,2147483647*68
$PGRMZ,-110,f,3*36
$GPRMC,151654.00,A,4506.05328,N,07538.01702,W,0.022,,251020,,,A*62
$GPGGA,151654.00,4506.05328,N,07538.01702,W,1,09,1.47,94.9,M,-34.2,M,,*5D
$GPGSA,A,3,30,18,29,05,07,20,23,13,15,,,,2.41,1.47,1.91*08
$PFLAU,0,1,2,1,0,0,2,0,2147483647*68
$PGRMZ,-111,f,3*37
$GPRMC,151655.00,A,4506.05327,N,07538.01699,W,0.062,,251020,,,A*6B
$GPGGA,151655.00,4506.05327,N,07538.01699,W,1,09,1.47,95.0,M,-34.2,M,,*58
$GPGSA,A,3,30,18,29,05,07,20,23,13,15,,,,2.41,1.47,1.91*08
$PFLAU,0,1,2,1,0,0,2,0,2147483647*68
$PGRMZ,-107,f,3*30
$GPRMC,151656.00,A,4506.05321,N,07538.01697,W,0.416,,251020,,,A*67
$GPGGA,151656.00,4506.05321,N,07538.01697,W,1,09,1.47,95.0,M,-34.2,M,,*53
$GPGSA,A,3,30,18,29,05,07,20,23,13,15,,,,2.41,1.47,1.91*08
$PFLAU,0,1,2,1,0,0,2,0,2147483647*68
$PGRMZ,-111,f,3*37
$GPRMC,151657.00,A,4506.05310,N,07538.01694,W,0.265,,251020,,,A*65
$GPGGA,151657.00,4506.05310,N,07538.01694,W,1,09,1.47,94.8,M,-34.2,M,,*5A
$GPGSA,A,3,30,18,29,05,07,20,23,13,15,,,,2.41,1.47,1.91*08
$PFLAU,0,1,2,1,0,0,2,0,2147483647*68
$PGRMZ,-110,f,3*36
$GPRMC,151658.00,A,4506.05308,N,07538.01688,W,0.201,,251020,,,A*6C
$GPGGA,151658.00,4506.05308,N,07538.01688,W,1,09,1.47,94.7,M,-34.2,M,,*5E
$GPGSA,A,3,30,18,29,05,07,20,23,13,15,,,,2.41,1.47,1.91*08
$PFLAU,0,1,2,1,0,0,2,0,2147483647*68
$PGRMZ,-110,f,3*36
$GPRMC,151659.00,A,4506.05308,N,07538.01681,W,0.190,,251020,,,A*6F
$GPGGA,151659.00,4506.05308,N,07538.01681,W,1,09,1.47,94.7,M,-34.2,M,,*56
$GPGSA,A,3,30,18,29,05,07,20,23,13,15,,,,2.41,1.47,1.91*08
$PFLAU,0,1,2,1,0,0,2,0,2147483647*68
$PGRMZ,-110,f,3*36
$GPRMC,151700.00,A,4506.05302,N,07538.01677,W,0.339,,251020,,,A*60
$GPGGA,151700.00,4506.05302,N,07538.01677,W,1,09,1.47,94.7,M,-34.2,M,,*58
$GPGSA,A,3,30,18,29,05,07,20,23,13,15,,,,2.41,1.47,1.91*08
$PFLAU,0,1,2,1,0,0,2,0,2147483647*68
$PGRMZ,-109,f,3*3E
$GPRMC,151701.00,A,4506.05301,N,07538.01675,W,0.055,,251020,,,A*69
$GPGGA,151701.00,4506.05301,N,07538.01675,W,1,09,1.47,94.7,M,-34.2,M,,*58
$GPGSA,A,3,30,18,29,05,07,20,23,13,15,,,,2.41,1.47,1.91*08
$PFLAU,0,1,2,1,0,0,2,0,2147483647*68
$PGRMZ,-108,f,3*3F
$GPRMC,151702.00,A,4506.05305,N,07538.01666,W,0.074,,251020,,,A*6F
$GPGGA,151702.00,4506.05305,N,07538.01666,W,1,09,1.47,94.4,M,-34.2,M,,*5E
$GPGSA,A,3,30,18,29,05,07,20,23,13,15,,,,2.41,1.47,1.91*08
$PFLAU,0,1,2,1,0,0,2,0,2147483647*68
$PGRMZ,-108,f,3*3F
$GPRMC,151703.00,A,4506.05310,N,07538.01652,W,0.279,,251020,,,A*62
$GPGGA,151703.00,4506.05310,N,07538.01652,W,1,09,1.47,94.2,M,-34.2,M,,*5A
$GPGSA,A,3,30,18,29,05,07,20,23,13,15,,,,2.41,1.47,1.91*08
$PFLAU,0,1,2,1,0,0,2,0,2147483647*68
$PGRMZ,-109,f,3*3E
$GPRMC,151704.00,A,4506.05315,N,07538.01638,W,0.207,,251020,,,A*65
$GPGGA,151704.00,4506.05315,N,07538.01638,W,1,09,1.47,94.0,M,-34.2,M,,*56
$GPGSA,A,3,30,18,29,05,07,20,23,13,15,,,,2.41,1.47,1.91*08
$PFLAU,0,1,2,1,0,0,2,0,2147483647*68
$PGRMZ,-110,f,3*36
$GPRMC,151705.00,A,4506.05319,N,07538.01621,W,0.225,,251020,,,A*60
$GPGGA,151705.00,4506.05319,N,07538.01621,W,1,09,1.47,93.9,M,-34.2,M,,*5D
$GPGSA,A,3,30,18,29,05,07,20,23,13,15,,,,2.41,1.47,1.91*08
$PFLAU,0,1,2,1,0,0,2,0,2147483647*68
$PGRMZ,-108,f,3*3F
$GPRMC,151706.00,A,4506.05317,N,07538.01610,W,0.298,,251020,,,A*69
$GPGGA,151706.00,4506.05317,N,07538.01610,W,1,09,1.47,93.8,M,-34.2,M,,*53
$GPGSA,A,3,30,18,29,05,07,20,23,13,15,,,,2.41,1.47,1.91*08
$PFLAU,0,1,2,1,0,0,2,0,2147483647*68
$PGRMZ,-111,f,3*37
$GPRMC,151707.00,A,4506.05314,N,07538.01604,W,0.046,,251020,,,A*6F
$GPGGA,151707.00,4506.05314,N,07538.01604,W,1,09,1.47,93.6,M,-34.2,M,,*5A
$GPGSA,A,3,30,18,29,05,07,20,23,13,15,,,,2.41,1.47,1.91*08
$PFLAU,0,1,2,1,0,0,2,0,2147483647*68
$PGRMZ,-110,f,3*36
$GPRMC,151708.00,A,4506.05317,N,07538.01593,W,0.206,,251020,,,A*68
$GPGGA,151708.00,4506.05317,N,07538.01593,W,1,09,1.47,93.4,M,-34.2,M,,*59
$GPGSA,A,3,30,18,29,05,07,20,23,13,15,,,,2.41,1.47,1.91*08
$PFLAU,0,1,2,1,0,0,2,0,2147483647*68
$PGRMZ,-110,f,3*36
$GPRMC,151709.00,A,4506.05315,N,07538.01584,W,0.118,,251020,,,A*61
$GPGGA,151709.00,4506.05315,N,07538.01584,W,1,09,1.47,93.1,M,-34.2,M,,*59
$GPGSA,A,3,30,18,29,05,07,20,23,13,15,,,,2.41,1.47,1.91*08
$PFLAU,0,1,2,1,0,0,2,0,2147483647*68
$PGRMZ,-111,f,3*37
$GPRMC,151710.00,A,4506.05312,N,07538.01582,W,0.132,,251020,,,A*60
$GPGGA,151710.00,4506.05312,N,07538.01582,W,1,09,1.47,93.0,M,-34.2,M,,*51
$GPGSA,A,3,30,18,29,05,07,20,23,13,15,,,,2.41,1.47,1.91*08
$PFLAU,0,1,2,1,0,0,2,0,2147483647*68
$PGRMZ,-109,f,3*3E
$GPRMC,151711.00,A,4506.05314,N,07538.01578,W,0.358,,251020,,,A*6C
$GPGGA,151711.00,4506.05314,N,07538.01578,W,1,09,1.47,92.9,M,-34.2,M,,*5B
$GPGSA,A,3,30,18,29,05,07,20,23,13,15,,,,2.41,1.47,1.91*08
$PFLAU,0,1,2,1,0,0,2,0,2147483647*68
$PGRMZ,-109,f,3*3E
$GPRMC,151712.00,A,4506.05313,N,07538.01573,W,0.099,,251020,,,A*6D
$GPGGA,151712.00,4506.05313,N,07538.01573,W,1,09,1.47,92.7,M,-34.2,M,,*5A
$GPGSA,A,3,30,18,29,05,07,20,23,13,15,,,,2.41,1.47,1.91*08
$PFLAU,0,1,2,1,0,0,2,0,2147483647*68
$PGRMZ,-110,f,3*36
$GPRMC,151713.00,A,4506.05307,N,07538.01569,W,0.152,,251020,,,A*64
$GPGGA,151713.00,4506.05307,N,07538.01569,W,1,09,1.47,92.5,M,-34.2,M,,*57
$GPGSA,A,3,30,18,29,05,07,20,23,13,15,,,,2.41,1.47,1.91*08
$PFLAU,0,1,2,1,0,0,2,0,2147483647*68
$PGRMZ,-110,f,3*36
$GPRMC,151714.00,A,4506.05301,N,07538.01567,W,0.106,,251020,,,A*6A
$GPGGA,151714.00,4506.05301,N,07538.01567,W,1,09,1.47,92.3,M,-34.2,M,,*5E
$GPGSA,A,3,30,18,29,05,07,20,23,13,15,,,,2.41,1.47,1.91*08
$PFLAU,0,1,2,1,0,0,2,0,2147483647*68
$PGRMZ,-107,f,3*30
$GPRMC,151715.00,A,4506.05297,N,07538.01568,W,0.089,,251020,,,A*6C
$GPGGA,151715.00,4506.05297,N,07538.01568,W,1,09,1.47,92.1,M,-34.2,M,,*5C
$GPGSA,A,3,30,18,29,05,07,20,23,13,15,,,,2.41,1.47,1.91*08
$PFLAU,0,1,2,1,0,0,2,0,2147483647*68
$PGRMZ,-108,f,3*3F
$GPRMC,151716.00,A,4506.05295,N,07538.01565,W,0.142,,251020,,,A*66
$GPGGA,151716.00,4506.05295,N,07538.01565,W,1,09,1.47,92.0,M,-34.2,M,,*51
$GPGSA,A,3,30,18,29,05,07,20,23,13,15,,,,2.41,1.47,1.91*08
$PFLAU,0,1,2,1,0,0,2,0,2147483647*68
$GPRMC,151717.00,A,4506.05291,N,07538.01565,W,0.093,,251020,,,A*6E
$PGRMZ,-109,f,3*3E
$GPGGA,151717.00,4506.05291,N,07538.01565,W,1,09,1.47,91.7,M,-34.2,M,,*50
$GPGSA,A,3,30,18,29,05,07,20,23,13,15,,,,2.41,1.47,1.91*08
$PFLAU,0,1,2,1,0,0,2,0,2147483647*68
$GPRMC,151718.00,A,4506.05286,N,07538.01566,W,0.020,,251020,,,A*6C
$PGRMZ,-109,f,3*3E
$GPGGA,151718.00,4506.05286,N,07538.01566,W,1,09,1.47,91.5,M,-34.2,M,,*58
$GPGSA,A,3,30,18,29,05,07,20,23,13,15,,,,2.41,1.47,1.91*08
$PFLAU,0,1,2,1,0,0,2,0,2147483647*68
$GPRMC,151719.00,A,4506.05282,N,07538.01563,W,0.111,,251020,,,A*6F
$PGRMZ,-109,f,3*3E
$GPGGA,151719.00,4506.05282,N,07538.01563,W,1,09,1.47,91.2,M,-34.2,M,,*5F
$GPGSA,A,3,30,18,29,05,07,20,23,13,15,,,,2.41,1.47,1.91*08
$PFLAU,0,1,2,1,0,0,2,0,2147483647*68
$GPRMC,151720.00,A,4506.05279,N,07538.01559,W,0.075,,251020,,,A*6B
$PGRMZ,-110,f,3*36
$GPGGA,151720.00,4506.05279,N,07538.01559,W,1,09,1.47,91.0,M,-34.2,M,,*5A
$GPGSA,A,3,30,18,29,05,07,20,23,13,15,,,,2.41,1.47,1.91*08
$PFLAU,0,1,2,1,0,0,2,0,2147483647*68
$GPRMC,151721.00,A,4506.05276,N,07538.01559,W,0.263,,251020,,,A*60
$PGRMZ,-108,f,3*3F
$GPGGA,151721.00,4506.05276,N,07538.01559,W,1,09,1.47,91.0,M,-34.2,M,,*54
$GPGSA,A,3,30,18,29,05,07,20,23,13,15,,,,2.41,1.47,1.91*08
$PFLAU,0,1,2,1,0,0,2,0,2147483647*68
$GPRMC,151722.00,A,4506.05277,N,07538.01557,W,0.327,,251020,,,A*6D
$PGRMZ,-110,f,3*36
$GPGGA,151722.00,4506.05277,N,07538.01557,W,1,09,1.47,91.0,M,-34.2,M,,*58
$GPGSA,A,3,30,18,29,05,07,20,23,13,15,,,,2.41,1.47,1.91*08
$PFLAU,0,1,2,1,0,0,2,0,2147483647*68
$GPRMC,151723.00,A,4506.05275,N,07538.01557,W,0.160,,251020,,,A*6F
$PGRMZ,-109,f,3*3E
$GPGGA,151723.00,4506.05275,N,07538.01557,W,1,09,1.47,90.9,M,-34.2,M,,*53
$GPGSA,A,3,30,18,29,05,07,20,23,13,15,,,,2.41,1.47,1.91*08
$PFLAU,0,1,2,1,0,0,2,0,2147483647*68
$GPRMC,151724.00,A,4506.05268,N,07538.01559,W,0.199,,251020,,,A*6C
$PGRMZ,-108,f,3*3F
$GPGGA,151724.00,4506.05268,N,07538.01559,W,1,09,1.47,91.0,M,-34.2,M,,*5E
$GPGSA,A,3,30,18,29,05,07,20,23,13,15,,,,2.41,1.47,1.91*08
$PFLAU,0,1,2,1,0,0,2,0,2147483647*68
$GPRMC,151725.00,A,4506.05263,N,07538.01564,W,0.068,,251020,,,A*67
$PGRMZ,-109,f,3*3E
$GPGGA,151725.00,4506.05263,N,07538.01564,W,1,09,1.47,90.9,M,-34.2,M,,*52
$GPGSA,A,3,30,18,29,05,07,20,23,13,15,,,,2.41,1.47,1.91*08
$PFLAU,0,1,2,1,0,0,2,0,2147483647*68
$GPRMC,151726.00,A,4506.05259,N,07538.01567,W,0.021,,251020,,,A*63
$PGRMZ,-109,f,3*3E
$GPGGA,151726.00,4506.05259,N,07538.01567,W,1,09,1.47,91.0,M,-34.2,M,,*53
$GPGSA,A,3,30,18,29,05,07,20,23,13,15,,,,2.41,1.47,1.91*08
$PFLAU,0,1,2,1,0,0,2,0,2147483647*68
$GPRMC,151727.00,A,4506.05256,N,07538.01572,W,0.147,,251020,,,A*68
$PGRMZ,-111,f,3*37
$GPGGA,151727.00,4506.05256,N,07538.01572,W,1,09,1.47,91.2,M,-34.2,M,,*5B
$GPGSA,A,3,30,18,29,05,07,20,23,13,15,,,,2.41,1.47,1.91*08
$PFLAU,0,1,2,1,0,0,2,0,2147483647*68
$GPRMC,151728.00,A,4506.05253,N,07538.01580,W,0.230,,251020,,,A*6C
$PGRMZ,-112,f,3*34
$GPGGA,151728.00,4506.05253,N,07538.01580,W,1,09,1.47,91.3,M,-34.2,M,,*5D
$GPGSA,A,3,30,18,29,05,07,20,23,13,15,,,,2.41,1.47,1.91*08
$PFLAU,0,1,2,1,0,0,2,0,2147483647*68
$GPRMC,151729.00,A,4506.05251,N,07538.01584,W,0.095,,251020,,,A*66
$PGRMZ,-110,f,3*36
$GPGGA,151729.00,4506.05251,N,07538.01584,W,1,09,1.47,91.3,M,-34.2,M,,*5A
$GPGSA,A,3,30,18,29,05,07,20,23,13,15,,,,2.41,1.47,1.91*08
$PFLAU,0,1,2,1,0,0,2,0,2147483647*68
$GPRMC,151730.00,A,4506.05250,N,07538.01584,W,0.025,,251020,,,A*64
$PGRMZ,-110,f,3*36
$GPGGA,151730.00,4506.05250,N,07538.01584,W,1,09,1.47,91.4,M,-34.2,M,,*54
$GPGSA,A,3,30,18,29,05,07,20,23,13,15,,,,2.41,1.47,1.91*08
$PFLAU,0,1,2,1,0,0,2,0,2147483647*68
$GPRMC,151731.00,A,4506.05250,N,07538.01585,W,0.159,,251020,,,A*6E
$PGRMZ,-111,f,3*37
$GPGGA,151731.00,4506.05250,N,07538.01585,W,1,09,1.47,91.3,M,-34.2,M,,*53
$GPGSA,A,3,30,18,29,05,07,20,23,13,15,,,,2.41,1.47,1.91*08
$PFLAU,0,1,2,1,0,0,2,0,2147483647*68
$GPRMC,151732.00,A,4506.05247,N,07538.01587,W,0.156,,251020,,,A*66
$PGRMZ,-107,f,3*30
$GPGGA,151732.00,4506.05247,N,07538.01587,W,1,09,1.47,91.4,M,-34.2,M,,*53
$GPGSA,A,3,30,18,29,05,07,20,23,13,15,,,,2.41,1.47,1.91*08
$PFLAU,0,1,2,1,0,0,2,0,2147483647*68
$GPRMC,151733.00,A,4506.05251,N,07538.01588,W,0.249,,251020,,,A*62
$PGRMZ,-110,f,3*36
$GPGGA,151733.00,4506.05251,N,07538.01588,W,1,09,1.47,91.6,M,-34.2,M,,*58
$GPGSA,A,3,30,18,29,05,07,20,23,13,15,,,,2.41,1.47,1.91*08
$PFLAU,0,1,2,1,0,0,2,0,2147483647*68
$GPRMC,151734.00,A,4506.05251,N,07538.01587,W,0.244,,251020,,,A*67
$PGRMZ,-109,f,3*3E
$GPGGA,151734.00,4506.05251,N,07538.01587,W,1,09,1.47,91.6,M,-34.2,M,,*50
$GPGSA,A,3,30,18,29,05,07,20,23,13,15,,,,2.41,1.47,1.91*08
$PFLAU,0,1,2,1,0,0,2,0,2147483647*68
$GPRMC,151735.00,A,4506.05249,N,07538.01590,W,0.240,,251020,,,A*6D
$PGRMZ,-109,f,3*3E
$GPGGA,151735.00,4506.05249,N,07538.01590,W,1,09,1.47,91.6,M,-34.2,M,,*5E
$GPGSA,A,3,30,18,29,05,07,20,23,13,15,,,,2.41,1.47,1.91*08
$PFLAU,0,1,2,1,0,0,2,0,2147483647*68
$GPRMC,151736.00,A,4506.05247,N,07538.01596,W,0.129,,251020,,,A*6A
$PGRMZ,-110,f,3*36
$GPGGA,151736.00,4506.05247,N,07538.01596,W,1,09,1.47,91.8,M,-34.2,M,,*5B
$GPGSA,A,3,30,18,29,05,07,20,23,13,15,,,,2.41,1.47,1.91*08
$PFLAU,0,1,2,1,0,0,2,0,2147483647*68
$GPRMC,151737.00,A,4506.05249,N,07538.01599,W,0.191,,251020,,,A*69
$PGRMZ,-108,f,3*3F
$GPGGA,151737.00,4506.05249,N,07538.01599,W,1,09,1.47,92.0,M,-34.2,M,,*50
$GPGSA,A,3,30,18,29,05,07,20,23,13,15,,,,2.42,1.47,1.91*0B
$PFLAU,0,1,2,1,0,0,2,0,2147483647*68
$GPRMC,151738.00,A,4506.05255,N,07538.01599,W,0.242,,251020,,,A*66
$PGRMZ,-109,f,3*3E
$GPGGA,151738.00,4506.05255,N,07538.01599,W,1,09,1.47,92.3,M,-34.2,M,,*51
$GPGSA,A,3,30,18,29,05,07,20,23,13,15,,,,2.42,1.47,1.91*0B
$PFLAU,0,1,2,1,0,0,2,0,2147483647*68
$GPRMC,151739.00,A,4506.05258,N,07538.01598,W,0.084,,251020,,,A*63
$PGRMZ,-111,f,3*37
$GPGGA,151739.00,4506.05258,N,07538.01598,W,1,09,1.47,92.6,M,-34.2,M,,*59
$GPGSA,A,3,30,18,29,05,07,20,23,13,15,,,,2.42,1.47,1.91*0B
$PFLAU,0,1,2,1,0,0,2,0,2147483647*68
$GPRMC,151740.00,A,4506.05260,N,07538.01599,W,0.150,,251020,,,A*6F
$PGRMZ,-111,f,3*37
$GPGGA,151740.00,4506.05260,N,07538.01599,W,1,09,1.47,92.8,M,-34.2,M,,*53
$GPGSA,A,3,30,18,29,05,07,20,23,13,15,,,,2.42,1.47,1.91*0B
$PFLAU,0,1,2,1,0,0,2,0,2147483647*68
$GPRMC,151741.00,A,4506.05259,N,07538.01600,W,0.191,,251020,,,A*6A
$PGRMZ,-111,f,3*37
$GPGGA,151741.00,4506.05259,N,07538.01600,W,1,09,1.47,92.8,M,-34.2,M,,*5B
$GPGSA,A,3,30,18,29,05,07,20,23,13,15,,,,2.42,1.47,1.91*0B
$PFLAU,0,1,2,1,0,0,2,0,2147483647*68
$GPRMC,151742.00,A,4506.05258,N,07538.01601,W,0.122,,251020,,,A*61
$PGRMZ,-110,f,3*36
$GPGGA,151742.00,4506.05258,N,07538.01601,W,1,09,1.47,92.8,M,-34.2,M,,*58
$GPGSA,A,3,30,18,29,05,07,20,23,13,15,,,,2.42,1.47,1.91*0B
$PFLAU,0,1,2,1,0,0,2,0,2147483647*68
$GPRMC,151743.00,A,4506.05263,N,07538.01606,W,0.090,,251020,,,A*67
$PGRMZ,-112,f,3*34
$GPGGA,151743.00,4506.05263,N,07538.01606,W,1,09,1.47,93.0,M,-34.2,M,,*5F
$GPGSA,A,3,30,18,29,05,07,20,23,13,15,,,,2.42,1.47,1.91*0B
$PFLAU,0,1,2,1,0,0,2,0,2147483647*68
$GPRMC,151744.00,A,4506.05276,N,07538.01609,W,0.562,3.36,251020,,,A*7B
$PGRMZ,-110,f,3*36
$GPGGA,151744.00,4506.05276,N,07538.01609,W,1,09,1.47,93.2,M,-34.2,M,,*51
$GPGSA,A,3,30,18,29,05,07,20,23,13,15,,,,2.42,1.47,1.91*0B
$PFLAU,0,1,2,1,0,0,2,0,2147483647*68
$GPRMC,151745.00,A,4506.05292,N,07538.01613,W,0.210,,251020,,,A*61
$PGRMZ,-112,f,3*34
$GPGGA,151745.00,4506.05292,N,07538.01613,W,1,09,1.47,93.6,M,-34.2,M,,*55
$GPGSA,A,3,30,18,29,05,07,20,23,13,15,,,,2.42,1.47,1.91*0B
$PFLAU,0,1,2,1,0,0,2,0,2147483647*68
$GPRMC,151746.00,A,4506.05304,N,07538.01617,W,0.177,,251020,,,A*6A
$PGRMZ,-113,f,3*35
$GPGGA,151746.00,4506.05304,N,07538.01617,W,1,09,1.47,93.8,M,-34.2,M,,*52
$GPGSA,A,3,30,18,29,05,07,20,23,13,15,,,,2.42,1.47,1.91*0B
$PFLAU,0,1,2,1,0,0,2,0,2147483647*68
$GPRMC,151747.00,A,4506.05315,N,07538.01623,W,0.128,,251020,,,A*66
$PGRMZ,-111,f,3*37
$GPGGA,151747.00,4506.05315,N,07538.01623,W,1,09,1.47,94.0,M,-34.2,M,,*5B
$GPGSA,A,3,30,18,29,05,07,20,23,13,15,,,,2.42,1.47,1.91*0B
$PFLAU,0,1,2,1,0,0,2,0,2147483647*68
$GPRMC,151748.00,A,4506.05319,N,07538.01629,W,0.101,,251020,,,A*64
$PGRMZ,-111,f,3*37
$GPGGA,151748.00,4506.05319,N,07538.01629,W,1,09,1.47,94.1,M,-34.2,M,,*53
$GPGSA,A,3,30,18,29,05,07,20,23,13,15,,,,2.42,1.47,1.91*0B
$PFLAU,0,1,2,1,0,0,2,0,2147483647*68
$GPRMC,151749.00,A,4506.05318,N,07538.01631,W,0.200,,251020,,,A*6F
$PGRMZ,-111,f,3*37
$GPGGA,151749.00,4506.05318,N,07538.01631,W,1,09,1.47,94.2,M,-34.2,M,,*59
$GPGSA,A,3,30,18,29,05,07,20,23,13,15,,,,2.42,1.47,1.91*0B
$PFLAU,0,1,2,1,0,0,2,0,2147483647*68
$GPRMC,151750.00,A,4506.05318,N,07538.01629,W,0.098,,251020,,,A*6D
$PGRMZ,-112,f,3*34
$GPGGA,151750.00,4506.05318,N,07538.01629,W,1,09,1.47,94.2,M,-34.2,M,,*58
$GPGSA,A,3,30,18,29,05,07,20,23,13,15,,,,2.42,1.47,1.91*0B
$PFLAU,0,1,2,1,0,0,2,0,2147483647*68
$GPRMC,151751.00,A,4506.05320,N,07538.01629,W,0.142,,251020,,,A*61
$GPGGA,151751.00,4506.05320,N,07538.01629,W,1,09,1.47,94.3,M,-34.2,M,,*53
$GPGSA,A,3,30,18,29,05,07,20,23,13,15,,,,2.42,1.47,1.91*0B
$PGRMZ,-113,f,3*35
$PFLAU,0,1,2,1,0,0,2,0,2147483647*68
$GPRMC,151752.00,A,4506.05320,N,07538.01630,W,0.146,,251020,,,A*6E
$GPGGA,151752.00,4506.05320,N,07538.01630,W,1,09,1.47,94.2,M,-34.2,M,,*59
$GPGSA,A,3,30,18,29,05,07,20,23,13,15,,,,2.42,1.47,1.91*0B
$PGRMZ,-111,f,3*37
$PFLAU,0,1,2,1,0,0,2,0,2147483647*68
$GPRMC,151753.00,A,4506.05315,N,07538.01637,W,0.156,,251020,,,A*6F
$GPGGA,151753.00,4506.05315,N,07538.01637,W,1,09,1.47,94.0,M,-34.2,M,,*5B
$GPGSA,A,3,30,18,29,05,07,20,23,13,15,,,,2.42,1.47,1.91*0B
$PGRMZ,-111,f,3*37
$PFLAU,0,1,2,1,0,0,2,0,2147483647*68
$GPRMC,151754.00,A,4506.05306,N,07538.01646,W,0.146,,251020,,,A*6D
$GPGGA,151754.00,4506.05306,N,07538.01646,W,1,09,1.47,93.7,M,-34.2,M,,*58
$GPGSA,A,3,30,18,29,05,07,20,23,13,15,,,,2.42,1.47,1.91*0B
$PGRMZ,-112,f,3*34
$PFLAU,0,1,2,1,0,0,2,0,2147483647*68
$GPRMC,151755.00,A,4506.05302,N,07538.01654,W,0.094,,251020,,,A*65
$GPGGA,151755.00,4506.05302,N,07538.01654,W,1,09,1.47,93.4,M,-34.2,M,,*5D
$GPGSA,A,3,30,18,29,05,07,20,23,13,15,,,,2.42,1.47,1.91*0B
$PGRMZ,-110,f,3*36
$PFLAU,0,1,2,1,0,0,2,0,2147483647*68
$GPRMC,151756.00,A,4506.05299,N,07538.01659,W,0.234,,251020,,,A*60
$GPGGA,151756.00,4506.05299,N,07538.01659,W,1,09,1.47,93.2,M,-34.2,M,,*56
$GPGSA,A,3,30,18,29,05,07,20,23,13,15,,,,2.42,1.47,1.92*08
$PGRMZ,-112,f,3*34
$PFLAU,0,1,2,1,0,0,2,0,2147483647*68
$GPRMC,151757.00,A,4506.05300,N,07538.01663,W,0.129,,251020,,,A*66
$GPGGA,151757.00,4506.05300,N,07538.01663,W,1,09,1.47,93.0,M,-34.2,M,,*5D
$GPGSA,A,3,30,18,29,05,07,20,23,13,15,,,,2.42,1.47,1.92*08
$PGRMZ,-111,f,3*37
$PFLAU,0,1,2,1,0,0,2,0,2147483647*68
$GPRMC,151758.00,A,4506.05304,N,07538.01662,W,0.249,,251020,,,A*69
$GPGGA,151758.00,4506.05304,N,07538.01662,W,1,09,1.47,92.7,M,-34.2,M,,*51
$GPGSA,A,3,30,18,29,05,07,20,23,13,15,,,,2.42,1.47,1.92*08
$PGRMZ,-113,f,3*35
$PFLAU,0,1,2,1,0,0,2,0,2147483647*68
$GPRMC,151759.00,A,4506.05305,N,07538.01662,W,0.067,,251020,,,A*67
$GPGGA,151759.00,4506.05305,N,07538.01662,W,1,09,1.47,92.5,M,-34.2,M,,*53
$GPGSA,A,3,30,18,29,05,07,20,23,13,15,,,,2.42,1.47,1.92*08
$PGRMZ,-111,f,3*37
$PFLAU,0,1,2,1,0,0,2,0,2147483647*68
$GPRMC,151800.00,A,4506.05307,N,07538.01664,W,0.159,,251020,,,A*6C
$GPGGA,151800.00,4506.05307,N,07538.01664,W,1,09,1.47,92.2,M,-34.2,M,,*53
$GPGSA,A,3,30,18,29,05,07,20,23,13,15,,,,2.42,1.47,1.92*08
$PGRMZ,-115,f,3*33
$PFLAU,0,1,2,1,0,0,2,0,2147483647*68
$GPRMC,151801.00,A,4506.05308,N,07538.01663,W,0.268,,251020,,,A*64
$GPGGA,151801.00,4506.05308,N,07538.01663,W,1,09,1.47,91.9,M,-34.2,M,,*52
$GPGSA,A,3,30,18,29,05,07,20,23,13,15,,,,2.42,1.47,1.92*08
$PGRMZ,-114,f,3*32
$PFLAU,0,1,2,1,0,0,2,0,2147483647*68
$GPRMC,151802.00,A,4506.05313,N,07538.01661,W,0.024,,251020,,,A*65
$GPGGA,151802.00,4506.05313,N,07538.01661,W,1,09,1.47,91.7,M,-34.2,M,,*57
$GPGSA,A,3,30,18,29,05,07,20,23,13,15,,,,2.42,1.47,1.92*08
$PGRMZ,-112,f,3*34
$PFLAU,0,1,2,1,0,0,2,0,2147483647*68
$GPRMC,151803.00,A,4506.05325,N,07538.01662,W,0.267,,251020,,,A*67
$GPGGA,151803.00,4506.05325,N,07538.01662,W,1,09,1.47,91.9,M,-34.2,M,,*5E
$GPGSA,A,3,30,18,29,05,07,20,23,13,15,,,,2.42,1.47,1.92*08
$PGRMZ,-113,f,3*35
$PFLAU,0,1,2,1,0,0,2,0,2147483647*68
$GPRMC,151804.00,A,4506.05336,N,07538.01659,W,0.152,,251020,,,A*6F
$GPGGA,151804.00,4506.05336,N,07538.01659,W,1,09,1.47,91.8,M,-34.2,M,,*52
$GPGSA,A,3,30,18,29,05,07,20,23,13,15,,,,2.42,1.47,1.92*08
$PGRMZ,-114,f,3*32
$PFLAU,0,1,2,1,0,0,2,0,2147483647*68
$GPRMC,151805.00,A,4506.05345,N,07538.01654,W,0.131,,251020,,,A*62
$GPGGA,151805.00,4506.05345,N,07538.01654,W,1,09,1.47,91.8,M,-34.2,M,,*5A
$GPGSA,A,3,30,18,29,05,07,20,23,13,15,,,,2.42,1.47,1.92*08
$PGRMZ,-113,f,3*35
$PFLAU,0,1,2,1,0,0,2,0,2147483647*68
$GPRMC,151806.00,A,4506.05358,N,07538.01654,W,0.236,,251020,,,A*69
$GPGGA,151806.00,4506.05358,N,07538.01654,W,1,09,1.47,91.8,M,-34.2,M,,*55
$GPGSA,A,3,30,18,29,05,07,20,23,13,15,,,,2.42,1.47,1.92*08
$PGRMZ,-115,f,3*33
$PFLAU,0,1,2,1,0,0,2,0,2147483647*68
$GPRMC,151807.00,A,4506.05369,N,07538.01652,W,0.211,,251020,,,A*69
$GPGGA,151807.00,4506.05369,N,07538.01652,W,1,09,1.47,91.7,M,-34.2,M,,*5F
$GPGSA,A,3,30,18,29,05,07,20,23,13,15,,,,2.42,1.47,1.92*08
$PGRMZ,-116,f,3*30
$PFLAU,0,1,2,1,0,0,2,0,2147483647*68
$GPRMC,151808.00,A,4506.05378,N,07538.01649,W,0.108,,251020,,,A*67
$GPGGA,151808.00,4506.05378,N,07538.01649,W,1,09,1.47,91.7,M,-34.2,M,,*5A
$GPGSA,A,3,30,18,29,05,07,20,23,13,15,,,,2.42,1.47,1.92*08
$PGRMZ,-115,f,3*33
$PFLAU,0,1,2,1,0,0,2,0,2147483647*68
$GPRMC,151809.00,A,4506.05385,N,07538.01649,W,0.065,,251020,,,A*6E
$GPGGA,151809.00,4506.05385,N,07538.01649,W,1,09,1.47,91.7,M,-34.2,M,,*59
$GPGSA,A,3,30,18,29,05,07,20,23,13,15,,,,2.42,1.47,1.92*08
$PGRMZ,-114,f,3*32
$PFLAU,0,1,2,1,0,0,2,0,2147483647*68
$GPRMC,151810.00,A,4506.05391,N,07538.01645,W,0.111,,251020,,,A*6D
$GPGGA,151810.00,4506.05391,N,07538.01645,W,1,09,1.47,91.6,M,-34.2,M,,*59
$GPGSA,A,3,30,18,29,05,07,20,23,13,15,,,,2.42,1.47,1.92*08
$PGRMZ,-115,f,3*33
$PFLAU,0,1,2,1,0,0,2,0,2147483647*68
$GPRMC,151811.00,A,4506.05393,N,07538.01641,W,0.082,,251020,,,A*61
$GPGGA,151811.00,4506.05393,N,07538.01641,W,1,09,1.47,91.4,M,-34.2,M,,*5C
$GPGSA,A,3,30,18,29,05,07,20,23,13,15,,,,2.42,1.47,1.92*08
$PGRMZ,-115,f,3*33
$PFLAU,0,1,2,1,0,0,2,0,2147483647*68
$GPRMC,151812.00,A,4506.05390,N,07538.01640,W,0.183,,251020,,,A*60
$GPGGA,151812.00,4506.05390,N,07538.01640,W,1,09,1.47,91.1,M,-34.2,M,,*58
$GPGSA,A,3,30,18,29,05,07,20,23,13,15,,,,2.42,1.47,1.92*08
$PGRMZ,-114,f,3*32
$PFLAU,0,1,2,1,0,0,2,0,2147483647*68
$GPRMC,151813.00,A,4506.05390,N,07538.01636,W,0.229,,251020,,,A*63
$GPGGA,151813.00,4506.05390,N,07538.01636,W,1,09,1.47,90.9,M,-34.2,M,,*51
$GPGSA,A,3,30,18,29,05,07,20,23,13,15,,,,2.42,1.47,1.92*08
$PGRMZ,-112,f,3*34
$PFLAU,0,1,2,1,0,0,2,0,2147483647*68
$GPRMC,151814.00,A,4506.05391,N,07538.01633,W,0.231,,251020,,,A*69
$GPGGA,151814.00,4506.05391,N,07538.01633,W,1,09,1.47,90.9,M,-34.2,M,,*52
$GPGSA,A,3,30,18,29,05,07,20,23,13,15,,,,2.42,1.47,1.92*08
$PGRMZ,-114,f,3*32
$PFLAU,0,1,2,1,0,0,2,0,2147483647*68
$GPRMC,151815.00,A,4506.05386,N,07538.01631,W,0.396,,251020,,,A*60
$GPGGA,151815.00,4506.05386,N,07538.01631,W,1,09,1.47,90.7,M,-34.2,M,,*59
$GPGSA,A,3,30,18,29,05,07,20,23,13,15,,,,2.42,1.47,1.92*08
$PGRMZ,-114,f,3*32
$PFLAU,0,1,2,1,0,0,2,0,2147483647*68
$GPRMC,151816.00,A,4506.05372,N,07538.01633,W,0.319,,251020,,,A*6D
$GPGGA,151816.00,4506.05372,N,07538.01633,W,1,09,1.47,90.5,M,-34.2,M,,*51
$GPGSA,A,3,30,18,29,05,07,20,23,13,15,,,,2.42,1.47,1.92*08
$PGRMZ,-112,f,3*34
$PFLAU,0,1,2,1,0,0,2,0,2147483647*68
$GPRMC,151817.00,A,4506.05363,N,07538.01634,W,0.060,,251020,,,A*66
$GPGGA,151817.00,4506.05363,N,07538.01634,W,1,09,1.47,90.6,M,-34.2,M,,*54
$GPGSA,A,3,30,18,29,05,07,20,23,13,15,,,,2.42,1.47,1.92*08
$PGRMZ,-113,f,3*35
$PFLAU,0,1,2,1,0,0,2,0,2147483647*68
$GPRMC,151818.00,A,4506.05356,N,07538.01630,W,0.221,,251020,,,A*6C
$GPGGA,151818.00,4506.05356,N,07538.01630,W,1,09,1.47,90.5,M,-34.2,M,,*5A
$GPGSA,A,3,30,18,29,05,07,20,23,13,15,,,,2.42,1.47,1.92*08
$PGRMZ,-113,f,3*35
$PFLAU,0,1,2,1,0,0,2,0,2147483647*68
$GPRMC,151819.00,A,4506.05349,N,07538.01627,W,0.289,,251020,,,A*67
$GPGGA,151819.00,4506.05349,N,07538.01627,W,1,09,1.47,90.4,M,-34.2,M,,*52
$GPGSA,A,3,30,18,29,05,07,20,23,13,15,,,,2.42,1.47,1.92*08
$PGRMZ,-114,f,3*32
$PFLAU,0,1,2,1,0,0,2,0,2147483647*68
$GPRMC,151820.00,A,4506.05350,N,07538.01620,W,0.434,,251020,,,A*62
$GPGGA,151820.00,4506.05350,N,07538.01620,W,1,09,1.47,90.5,M,-34.2,M,,*56
$GPGSA,A,3,30,18,29,05,07,20,23,13,15,,,,2.42,1.47,1.92*08
$PGRMZ,-115,f,3*33
$PFLAU,0,1,2,1,0,0,2,0,2147483647*68
$GPRMC,151821.00,A,4506.05351,N,07538.01614,W,0.054,,251020,,,A*67
$GPGGA,151821.00,4506.05351,N,07538.01614,W,1,09,1.47,90.6,M,-34.2,M,,*52
$GPGSA,A,3,30,18,29,05,07,20,23,13,15,,,,2.42,1.47,1.92*08
$PGRMZ,-115,f,3*33
$PFLAU,0,1,2,1,0,0,2,0,2147483647*68
$GPRMC,151822.00,A,4506.05345,N,07538.01613,W,0.105,,251020,,,A*63
$GPGGA,151822.00,4506.05345,N,07538.01613,W,1,09,1.47,90.8,M,-34.2,M,,*5D
$GPGSA,A,3,30,18,29,05,07,20,23,13,15,,,,2.42,1.47,1.92*08
$PGRMZ,-112,f,3*34
$PFLAU,0,1,2,1,0,0,2,0,2147483647*68
$GPRMC,151823.00,A,4506.05338,N,07538.01615,W,0.269,,251020,,,A*67
$GPGGA,151823.00,4506.05338,N,07538.01615,W,1,09,1.47,90.9,M,-34.2,M,,*51
$GPGSA,A,3,30,18,29,05,07,20,23,13,15,,,,2.42,1.47,1.92*08
$PGRMZ,-114,f,3*32
$PFLAU,0,1,2,1,0,0,2,0,2147483647*68
$GPRMC,151824.00,A,4506.05334,N,07538.01617,W,0.220,,251020,,,A*63
$GPGGA,151824.00,4506.05334,N,07538.01617,W,1,09,1.47,91.0,M,-34.2,M,,*50
$GPGSA,A,3,30,18,29,05,07,20,23,13,15,,,,2.42,1.47,1.92*08
$PGRMZ,-115,f,3*33
$PFLAU,0,1,2,1,0,0,2,0,2147483647*68
$GPRMC,151825.00,A,4506.05335,N,07538.01611,W,0.283,,251020,,,A*6C
$GPGGA,151825.00,4506.05335,N,07538.01611,W,1,09,1.47,90.9,M,-34.2,M,,*5E
$GPGSA,A,3,30,18,29,05,07,20,23,13,15,,,,2.42,1.47,1.92*08
$PGRMZ,-115,f,3*33
$PFLAU,0,1,2,1,0,0,2,0,2147483647*68
$GPRMC,151826.00,A,4506.05332,N,07538.01606,W,0.006,,251020,,,A*61
$GPGGA,151826.00,4506.05332,N,07538.01606,W,1,09,1.47,90.7,M,-34.2,M,,*52
$GPGSA,A,3,30,18,29,05,07,20,23,13,15,,,,2.42,1.47,1.92*08
$PGRMZ,-113,f,3*35
$PFLAU,0,1,2,1,0,0,2,0,2147483647*68
$GPRMC,151827.00,A,4506.05334,N,07538.01605,W,0.161,,251020,,,A*65
$GPGGA,151827.00,4506.05334,N,07538.01605,W,1,09,1.47,90.6,M,-34.2,M,,*57
$GPGSA,A,3,30,18,29,05,07,20,23,13,15,,,,2.42,1.47,1.92*08
$PGRMZ,-113,f,3*35
$PFLAU,0,1,2,1,0,0,2,0,2147483647*68
$GPRMC,151828.00,A,4506.05336,N,07538.01607,W,0.162,,251020,,,A*69
$GPGGA,151828.00,4506.05336,N,07538.01607,W,1,09,1.47,90.5,M,-34.2,M,,*5B
$GPGSA,A,3,30,18,29,05,07,20,23,13,15,,,,2.42,1.47,1.92*08
$PGRMZ,-114,f,3*32
$PFLAU,0,1,2,1,0,0,2,0,2147483647*68
$GPRMC,151829.00,A,4506.05335,N,07538.01614,W,0.154,,251020,,,A*6C
$GPGGA,151829.00,4506.05335,N,07538.01614,W,1,09,1.47,90.6,M,-34.2,M,,*58
$GPGSA,A,3,30,18,29,05,07,20,23,13,15,,,,2.42,1.47,1.92*08
$PGRMZ,-113,f,3*35
$PFLAU,0,1,2,1,0,0,2,0,2147483647*68
$GPRMC,151830.00,A,4506.05334,N,07538.01618,W,0.123,,251020,,,A*69
$GPGGA,151830.00,4506.05334,N,07538.01618,W,1,09,1.47,90.6,M,-34.2,M,,*5D
$GPGSA,A,3,30,18,29,05,07,20,23,13,15,,,,2.42,1.47,1.92*08
$PGRMZ,-115,f,3*33
$PFLAU,0,1,2,1,0,0,2,0,2147483647*68
$GPRMC,151831.00,A,4506.05336,N,07538.01624,W,0.217,,251020,,,A*61
$GPGGA,151831.00,4506.05336,N,07538.01624,W,1,09,1.47,90.8,M,-34.2,M,,*5F
$GPGSA,A,3,30,18,29,05,07,20,23,13,15,,,,2.42,1.47,1.92*08
$PGRMZ,-114,f,3*32
$PFLAU,0,1,2,1,0,0,2,0,2147483647*68
$GPRMC,151832.00,A,4506.05340,N,07538.01630,W,0.149,,251020,,,A*6E
$GPGGA,151832.00,4506.05340,N,07538.01630,W,1,09,1.47,91.3,M,-34.2,M,,*52
$GPGSA,A,3,30,18,29,05,07,20,23,13,15,,,,2.42,1.47,1.92*08
$PGRMZ,-115,f,3*33
$PFLAU,0,1,2,1,0,0,2,0,2147483647*68
$GPRMC,151833.00,A,4506.05354,N,07538.01630,W,0.149,,251020,,,A*6A
$GPGGA,151833.00,4506.05354,N,07538.01630,W,1,09,1.47,91.9,M,-34.2,M,,*5C
$GPGSA,A,3,30,18,29,05,07,20,23,13,15,,,,2.42,1.47,1.92*08
$PGRMZ,-115,f,3*33
$PFLAU,0,1,2,1,0,0,2,0,2147483647*68
$GPRMC,151834.00,A,4506.05369,N,07538.01625,W,0.157,,251020,,,A*68
$GPGGA,151834.00,4506.05369,N,07538.01625,W,1,09,1.47,92.2,M,-34.2,M,,*59
$GPGSA,A,3,30,18,29,05,07,20,23,13,15,,,,2.42,1.47,1.92*08
$PGRMZ,-115,f,3*33
$PFLAU,0,1,2,1,0,0,2,0,2147483647*68
$GPRMC,151835.00,A,4506.05380,N,07538.01618,W,0.143,,251020,,,A*65
$GPGGA,151835.00,4506.05380,N,07538.01618,W,1,09,1.47,92.2,M,-34.2,M,,*51
$GPGSA,A,3,30,18,29,05,07,20,23,13,15,,,,2.42,1.47,1.92*08
$PGRMZ,-115,f,3*33
$PFLAU,0,1,2,1,0,0,2,0,2147483647*68
$GPRMC,151836.00,A,4506.05384,N,07538.01610,W,0.108,,251020,,,A*65
$GPGGA,151836.00,4506.05384,N,07538.01610,W,1,09,1.47,92.2,M,-34.2,M,,*5E
$GPGSA,A,3,30,18,29,05,07,20,23,13,15,,,,2.42,1.47,1.92*08
$PGRMZ,-113,f,3*35
$PFLAU,0,1,2,1,0,0,2,0,2147483647*68
$GPRMC,151837.00,A,4506.05388,N,07538.01603,W,0.065,,251020,,,A*60
$GPGGA,151837.00,4506.05388,N,07538.01603,W,1,09,1.47,92.4,M,-34.2,M,,*57
$GPGSA,A,3,30,18,29,05,07,20,23,13,15,,,,2.42,1.47,1.92*08
$PGRMZ,-115,f,3*33
$PFLAU,0,1,2,1,0,0,2,0,2147483647*68
$GPRMC,151838.00,A,4506.05393,N,07538.01599,W,0.202,,251020,,,A*66
$GPGGA,151838.00,4506.05393,N,07538.01599,W,1,09,1.47,92.8,M,-34.2,M,,*5E
$GPGSA,A,3,30,18,29,05,07,20,23,13,15,,,,2.42,1.47,1.92*08
$PGRMZ,-114,f,3*32
$PFLAU,0,1,2,1,0,0,2,0,2147483647*68
$GPRMC,151839.00,A,4506.05395,N,07538.01592,W,0.191,,251020,,,A*63
$GPGGA,151839.00,4506.05395,N,07538.01592,W,1,09,1.47,93.1,M,-34.2,M,,*5A
$GPGSA,A,3,30,18,29,05,07,20,23,13,15,,,,2.42,1.47,1.92*08
$PGRMZ,-115,f,3*33
$PFLAU,0,1,2,1,0,0,2,0,2147483647*68
$GPRMC,151840.00,A,4506.05399,N,07538.01585,W,0.057,,251020,,,A*6C
$GPGGA,151840.00,4506.05399,N,07538.01585,W,1,09,1.47,93.4,M,-34.2,M,,*5B
$GPGSA,A,3,30,18,29,05,07,20,23,13,15,,,,2.42,1.47,1.92*08
$PGRMZ,-112,f,3*34
$PFLAU,0,1,2,1,0,0,2,0,2147483647*68
$GPRMC,151841.00,A,4506.05406,N,07538.01577,W,0.218,,251020,,,A*68
$GPGGA,151841.00,4506.05406,N,07538.01577,W,1,09,1.47,93.5,M,-34.2,M,,*57
$GPGSA,A,3,30,18,29,05,07,20,23,13,15,,,,2.42,1.47,1.92*08
$PGRMZ,-113,f,3*35
$PFLAU,0,1,2,1,0,0,2,0,2147483647*68
$GPRMC,151842.00,A,4506.05414,N,07538.01566,W,0.340,,251020,,,A*64
$GPGGA,151842.00,4506.05414,N,07538.01566,W,1,09,1.47,93.5,M,-34.2,M,,*57
$GPGSA,A,3,30,18,29,05,07,20,23,13,15,,,,2.42,1.47,1.92*08
$PGRMZ,-114,f,3*32
$PFLAU,0,1,2,1,0,0,2,0,2147483647*68
$GPRMC,151843.00,A,4506.05422,N,07538.01563,W,0.094,,251020,,,A*6F
$GPGGA,151843.00,4506.05422,N,07538.01563,W,1,09,1.47,93.7,M,-34.2,M,,*54
$GPGSA,A,3,30,18,29,05,07,20,23,13,15,,,,2.42,1.47,1.92*08
$PGRMZ,-116,f,3*30
$PFLAU,0,1,2,1,0,0,2,0,2147483647*68
$GPRMC,151844.00,A,4506.05429,N,07538.01566,W,0.158,,251020,,,A*67
$GPGGA,151844.00,4506.05429,N,07538.01566,W,1,09,1.47,94.0,M,-34.2,M,,*5D
$GPGSA,A,3,30,18,29,05,07,20,23,13,15,,,,2.42,1.47,1.92*08
$PGRMZ,-112,f,3*34
$PFLAU,0,1,2,1,0,0,2,0,2147483647*68
$GPRMC,151845.00,A,4506.05437,N,07538.01564,W,0.238,,251020,,,A*6E
$GPGGA,151845.00,4506.05437,N,07538.01564,W,1,09,1.47,94.2,M,-34.2,M,,*53
$GPGSA,A,3,30,18,29,05,07,20,23,13,15,,,,2.42,1.47,1.92*08
$PGRMZ,-114,f,3*32
$PFLAU,0,1,2,1,0,0,2,0,2147483647*68
$GPRMC,151846.00,A,4506.05442,N,07538.01568,W,0.216,,251020,,,A*6F
$GPGGA,151846.00,4506.05442,N,07538.01568,W,1,09,1.47,94.4,M,-34.2,M,,*58
$GPGSA,A,3,30,18,29,05,07,20,23,13,15,,,,2.42,1.47,1.92*08
$PGRMZ,-116,f,3*30
$PFLAU,0,1,2,1,0,0,2,0,2147483647*68
$GPRMC,151847.00,A,4506.05443,N,07538.01569,W,0.027,,251020,,,A*6E
$GPGGA,151847.00,4506.05443,N,07538.01569,W,1,09,1.47,94.5,M,-34.2,M,,*58
$GPGSA,A,3,30,18,29,05,07,20,23,13,15,,,,2.42,1.47,1.92*08
$PGRMZ,-116,f,3*30
$PFLAU,0,1,2,1,0,0,2,0,2147483647*68
$GPRMC,151848.00,A,4506.05438,N,07538.01568,W,0.334,,251020,,,A*6D
$GPGGA,151848.00,4506.05438,N,07538.01568,W,1,09,1.47,94.4,M,-34.2,M,,*5B
$GPGSA,A,3,30,18,29,05,07,20,23,13,15,,,,2.42,1.47,1.92*08
$PGRMZ,-115,f,3*33
$PFLAU,0,1,2,1,0,0,2,0,2147483647*68
$GPRMC,151849.00,A,4506.05431,N,07538.01567,W,0.206,,251020,,,A*6A
$GPGGA,151849.00,4506.05431,N,07538.01567,W,1,08,1.47,94.3,M,-34.2,M,,*5A
$GPGSA,A,3,30,18,29,05,20,23,13,15,,,,,2.42,1.47,1.92*0F
$PGRMZ,-116,f,3*30
$PFLAU,0,1,2,1,0,0,2,0,2147483647*68
$GPRMC,151850.00,A,4506.05429,N,07538.01566,W,0.125,,251020,,,A*68
$GPGGA,151850.00,4506.05429,N,07538.01566,W,1,08,1.47,94.4,M,-34.2,M,,*5D
$GPGSA,A,3,30,18,29,05,20,23,13,15,,,,,2.42,1.47,1.92*0F
$PGRMZ,-114,f,3*32
$PFLAU,0,1,2,1,0,0,2,0,2147483647*68
$GPRMC,151851.00,A,4506.05431,N,07538.01567,W,0.097,,251020,,,A*69
$GPGGA,151851.00,4506.05431,N,07538.01567,W,1,08,1.47,94.5,M,-34.2,M,,*55
$GPGSA,A,3,30,18,29,05,20,23,13,15,,,,,2.42,1.47,1.92*0F
$PGRMZ,-114,f,3*32
$PFLAU,0,1,2,1,0,0,2,0,2147483647*68
$GPRMC,151852.00,A,4506.05433,N,07538.01571,W,0.027,,251020,,,A*64
$GPGGA,151852.00,4506.05433,N,07538.01571,W,1,08,1.47,94.3,M,-34.2,M,,*55
$GPGSA,A,3,30,18,29,05,20,23,13,15,,,,,2.42,1.47,1.92*0F
$PGRMZ,-116,f,3*30
$PFLAU,0,1,2,1,0,0,2,0,2147483647*68
$GPRMC,151853.00,A,4506.05435,N,07538.01575,W,0.064,,251020,,,A*60
$GPGGA,151853.00,4506.05435,N,07538.01575,W,1,08,1.47,94.3,M,-34.2,M,,*56
$GPGSA,A,3,30,18,29,05,20,23,13,15,,,,,2.42,1.47,1.92*0F
$PGRMZ,-116,f,3*30
$PFLAU,0,1,2,1,0,0,2,0,2147483647*68
$GPRMC,151854.00,A,4506.05438,N,07538.01580,W,0.071,,251020,,,A*64
$GPGGA,151854.00,4506.05438,N,07538.01580,W,1,08,1.47,94.5,M,-34.2,M,,*50
$GPGSA,A,3,30,18,29,05,20,23,13,15,,,,,2.42,1.47,1.92*0F
$PGRMZ,-116,f,3*30
$PFLAU,0,1,2,1,0,0,2,0,2147483647*68
$GPRMC,151855.00,A,4506.05441,N,07538.01589,W,0.151,,251020,,,A*61
$GPGGA,151855.00,4506.05441,N,07538.01589,W,1,08,1.47,94.6,M,-34.2,M,,*55
$GPGSA,A,3,30,18,29,05,20,23,13,15,,,,,2.42,1.47,1.92*0F
$PGRMZ,-116,f,3*30
$PFLAU,0,1,2,1,0,0,2,0,2147483647*68
$GPRMC,151856.00,A,4506.05447,N,07538.01593,W,0.109,,251020,,,A*62
$GPGGA,151856.00,4506.05447,N,07538.01593,W,1,08,1.47,94.6,M,-34.2,M,,*5B
$GPGSA,A,3,30,18,29,05,20,23,13,15,,,,,2.42,1.47,1.92*0F
$PGRMZ,-116,f,3*30
$PFLAU,0,1,2,1,0,0,2,0,2147483647*68
$GPRMC,151857.00,A,4506.05449,N,07538.01593,W,0.086,,251020,,,A*6B
$GPGGA,151857.00,4506.05449,N,07538.01593,W,1,08,1.47,94.7,M,-34.2,M,,*55
$GPGSA,A,3,30,18,29,05,20,23,13,15,,,,,2.42,1.47,1.92*0F
$PGRMZ,-114,f,3*32
$PFLAU,0,1,2,1,0,0,2,0,2147483647*68
$GPRMC,151858.00,A,4506.05448,N,07538.01592,W,0.147,,251020,,,A*68
$GPGGA,151858.00,4506.05448,N,07538.01592,W,1,08,1.47,94.7,M,-34.2,M,,*5A
$GPGSA,A,3,30,18,29,05,20,23,13,15,,,,,2.42,1.47,1.92*0F
$PGRMZ,-116,f,3*30
$PFLAU,0,1,2,1,0,0,2,0,2147483647*68
$GPRMC,151859.00,A,4506.05445,N,07538.01590,W,0.163,,251020,,,A*60
$GPGGA,151859.00,4506.05445,N,07538.01590,W,1,08,1.47,94.7,M,-34.2,M,,*54
$GPGSA,A,3,30,18,29,05,20,23,13,15,,,,,2.42,1.47,1.92*0F
$PGRMZ,-116,f,3*30
$PFLAU,0,1,2,1,0,0,2,0,2147483647*68
$GPRMC,151900.00,A,4506.05444,N,07538.01590,W,0.244,,251020,,,A*6A
$GPGGA,151900.00,4506.05444,N,07538.01590,W,1,08,1.47,94.8,M,-34.2,M,,*57
$GPGSA,A,3,30,18,29,05,20,23,13,15,,,,,2.42,1.47,1.92*0F
$PGRMZ,-115,f,3*33
$PFLAU,0,1,2,1,0,0,2,0,2147483647*68
$GPRMC,151901.00,A,4506.05443,N,07538.01594,W,0.156,,251020,,,A*68
$GPGGA,151901.00,4506.05443,N,07538.01594,W,1,08,1.47,95.0,M,-34.2,M,,*5C
$GPGSA,A,3,30,18,29,05,20,23,13,15,,,,,2.42,1.47,1.92*0F
$PGRMZ,-115,f,3*33
$PFLAU,0,1,2,1,0,0,2,0,2147483647*68
$GPRMC,151902.00,A,4506.05439,N,07538.01598,W,0.102,,251020,,,A*6B
$GPGGA,151902.00,4506.05439,N,07538.01598,W,1,08,1.47,95.0,M,-34.2,M,,*5E
$GPGSA,A,3,30,18,29,05,20,23,13,15,,,,,2.42,1.47,1.92*0F
$PGRMZ,-115,f,3*33
$PFLAU,0,1,2,1,0,0,2,0,2147483647*68
$GPRMC,151903.00,A,4506.05441,N,07538.01597,W,0.198,,251020,,,A*69
$GPGGA,151903.00,4506.05441,N,07538.01597,W,1,08,1.47,95.2,M,-34.2,M,,*5D
$GPGSA,A,3,30,18,29,05,20,23,13,15,,,,,2.42,1.47,1.92*0F
$PGRMZ,-115,f,3*33
$PFLAU,0,1,2,1,0,0,2,0,2147483647*68
$GPRMC,151904.00,A,4506.05448,N,07538.01595,W,0.302,,251020,,,A*64
$GPGGA,151904.00,4506.05448,N,07538.01595,W,1,08,1.47,95.5,M,-34.2,M,,*56
$GPGSA,A,3,30,18,29,05,20,23,13,15,,,,,2.42,1.47,1.92*0F
$PGRMZ,-114,f,3*32
$PFLAU,0,1,2,1,0,0,2,0,2147483647*68
$GPRMC,151905.00,A,4506.05456,N,07538.01604,W,0.272,,251020,,,A*67
$GPGGA,151905.00,4506.05456,N,07538.01604,W,1,08,1.47,95.7,M,-34.2,M,,*51
$GPGSA,A,3,30,18,29,05,20,23,13,15,,,,,2.42,1.47,1.92*0F
$PGRMZ,-113,f,3*35
$PFLAU,0,1,2,1,0,0,2,0,2147483647*68
$GPRMC,151906.00,A,4506.05463,N,07538.01613,W,0.213,,251020,,,A*63
$GPGGA,151906.00,4506.05463,N,07538.01613,W,1,08,1.47,96.0,M,-34.2,M,,*56
$GPGSA,A,3,30,18,29,05,20,23,13,15,,,,,2.42,1.47,1.92*0F
$PGRMZ,-116,f,3*30
$PFLAU,0,1,2,1,0,0,2,0,2147483647*68
$GPRMC,151907.00,A,4506.05464,N,07538.01616,W,0.166,,251020,,,A*61
$GPGGA,151907.00,4506.05464,N,07538.01616,W,1,08,1.47,96.1,M,-34.2,M,,*54
$GPGSA,A,3,30,18,29,05,20,23,13,15,,,,,2.42,1.47,1.92*0F
$PGRMZ,-113,f,3*35
$PFLAU,0,1,2,1,0,0,2,0,2147483647*68
$GPRMC,151908.00,A,4506.05459,N,07538.01617,W,0.057,,251020,,,A*62
$GPGGA,151908.00,4506.05459,N,07538.01617,W,1,08,1.47,96.2,M,-34.2,M,,*57
$GPGSA,A,3,30,18,29,05,20,23,13,15,,,,,2.42,1.47,1.92*0F
$PGRMZ,-115,f,3*33
$PFLAU,0,1,2,1,0,0,2,0,2147483647*68
$GPRMC,151909.00,A,4506.05457,N,07538.01616,W,0.104,,251020,,,A*6B
$GPGGA,151909.00,4506.05457,N,07538.01616,W,1,08,1.47,96.3,M,-34.2,M,,*58
$GPGSA,A,3,30,18,29,05,20,23,13,15,,,,,2.42,1.47,1.92*0F
$PGRMZ,-115,f,3*33
$PFLAU,0,1,2,1,0,0,2,0,2147483647*68
$GPRMC,151910.00,A,4506.05458,N,07538.01617,W,0.081,,251020,,,A*61
$GPGGA,151910.00,4506.05458,N,07538.01617,W,1,08,1.47,96.5,M,-34.2,M,,*58
$GPGSA,A,3,30,18,29,05,20,23,13,15,,,,,2.42,1.47,1.92*0F
$PGRMZ,-115,f,3*33
$PFLAU,0,1,2,1,0,0,2,0,2147483647*68
$GPRMC,151911.00,A,4506.05457,N,07538.01623,W,0.064,,251020,,,A*63
$GPGGA,151911.00,4506.05457,N,07538.01623,W,1,08,1.47,96.8,M,-34.2,M,,*5C
$GPGSA,A,3,30,18,29,05,20,23,13,15,,,,,2.42,1.47,1.92*0F
$PGRMZ,-113,f,3*35
$PFLAU,0,1,2,1,0,0,2,0,2147483647*68
$GPRMC,151912.00,A,4506.05454,N,07538.01627,W,0.228,,251020,,,A*6D
$GPGGA,151912.00,4506.05454,N,07538.01627,W,1,08,1.47,96.7,M,-34.2,M,,*57
$GPGSA,A,3,30,18,29,05,20,23,13,15,,,,,2.42,1.47,1.92*0F
$PGRMZ,-115,f,3*33
$PFLAU,0,1,2,1,0,0,2,0,2147483647*68
$GPRMC,151913.00,A,4506.05454,N,07538.01630,W,0.175,,251020,,,A*61
$GPGGA,151913.00,4506.05454,N,07538.01630,W,1,08,1.47,96.7,M,-34.2,M,,*50
$GPGSA,A,3,30,18,29,05,20,23,13,15,,,,,2.42,1.47,1.92*0F
$PGRMZ,-116,f,3*30
$PFLAU,0,1,2,1,0,0,2,0,2147483647*68
$GPRMC,151914.00,A,4506.05463,N,07538.01630,W,0.460,,251020,,,A*63
$GPGGA,151914.00,4506.05463,N,07538.01630,W,1,08,1.47,97.0,M,-34.2,M,,*55
$GPGSA,A,3,30,18,29,05,20,23,13,15,,,,,2.42,1.47,1.92*0F
$PGRMZ,-113,f,3*35
$PFLAU,0,1,2,1,0,0,2,0,2147483647*68
$GPRMC,151915.00,A,4506.05468,N,07538.01629,W,0.181,,251020,,,A*6B
$GPGGA,151915.00,4506.05468,N,07538.01629,W,1,08,1.47,97.2,M,-34.2,M,,*55
$GPGSA,A,3,30,18,29,05,20,23,13,15,,,,,2.42,1.47,1.92*0F
$PGRMZ,-114,f,3*32
$PFLAU,0,1,2,1,0,0,2,0,2147483647*68
$GPRMC,151916.00,A,4506.05463,N,07538.01632,W,0.172,,251020,,,A*65
$GPGGA,151916.00,4506.05463,N,07538.01632,W,1,08,1.47,97.2,M,-34.2,M,,*57
$GPGSA,A,3,30,18,29,05,20,23,13,15,,,,,2.42,1.47,1.92*0F
$PGRMZ,-115,f,3*33
$PFLAU,0,1,2,1,0,0,2,0,2147483647*68
$GPRMC,151917.00,A,4506.05456,N,07538.01635,W,0.071,,251020,,,A*67
$GPGGA,151917.00,4506.05456,N,07538.01635,W,1,08,1.47,97.0,M,-34.2,M,,*55
$GPGSA,A,3,30,18,29,05,20,23,13,15,,,,,2.42,1.47,1.92*0F
$PGRMZ,-113,f,3*35
$PFLAU,0,1,2,1,0,0,2,0,2147483647*68
$GPRMC,151918.00,A,4506.05450,N,07538.01637,W,0.085,,251020,,,A*67
$GPGGA,151918.00,4506.05450,N,07538.01637,W,1,08,1.47,96.8,M,-34.2,M,,*57
$GPGSA,A,3,30,18,29,05,20,23,13,15,,,,,2.42,1.47,1.92*0F
$PGRMZ,-114,f,3*32
$PFLAU,0,1,2,1,0,0,2,0,2147483647*68
$GPRMC,151919.00,A,4506.05444,N,07538.01638,W,0.224,,251020,,,A*65
$GPGGA,151919.00,4506.05444,N,07538.01638,W,1,08,1.47,96.6,M,-34.2,M,,*52
$GPGSA,A,3,30,18,29,05,20,23,13,15,,,,,2.42,1.47,1.92*0F
$PGRMZ,-116,f,3*30
$PFLAU,0,1,2,1,0,0,2,0,2147483647*68
$GPRMC,151920.00,A,4506.05439,N,07538.01646,W,0.251,,251020,,,A*6E
$GPGGA,151920.00,4506.05439,N,07538.01646,W,1,08,1.47,96.5,M,-34.2,M,,*58
$GPGSA,A,3,30,18,29,05,20,23,13,15,,,,,2.42,1.47,1.92*0F
$PGRMZ,-115,f,3*33
$PFLAU,0,1,2,1,0,0,2,0,2147483647*68
$GPRMC,151921.00,A,4506.05428,N,07538.01661,W,0.319,,251020,,,A*67
$GPGGA,151921.00,4506.05428,N,07538.01661,W,1,08,1.47,96.2,M,-34.2,M,,*5B
$GPGSA,A,3,30,18,29,05,20,23,13,15,,,,,2.42,1.47,1.92*0F
$PGRMZ,-116,f,3*30
$PFLAU,0,1,2,1,0,0,2,0,2147483647*68
$GPRMC,151922.00,A,4506.05428,N,07538.01668,W,0.199,,251020,,,A*67
$GPGGA,151922.00,4506.05428,N,07538.01668,W,1,08,1.47,96.3,M,-34.2,M,,*50
$GPGSA,A,3,30,18,29,05,20,23,13,15,,,,,2.42,1.47,1.92*0F
$PGRMZ,-116,f,3*30
$PFLAU,0,1,2,1,0,0,2,0,2147483647*68
$GPRMC,151923.00,A,4506.05429,N,07538.01669,W,0.233,,251020,,,A*65
$GPGGA,151923.00,4506.05429,N,07538.01669,W,1,08,1.47,96.4,M,-34.2,M,,*56
$GPGSA,A,3,30,18,29,05,20,23,13,15,,,,,2.42,1.47,1.92*0F
$PGRMZ,-114,f,3*32
$PFLAU,0,1,2,1,0,0,2,0,2147483647*68
$GPRMC,151924.00,A,4506.05425,N,07538.01672,W,0.099,,251020,,,A*66
$GPGGA,151924.00,4506.05425,N,07538.01672,W,1,08,1.47,96.5,M,-34.2,M,,*56
$GPGSA,A,3,30,18,29,05,20,23,13,15,,,,,2.42,1.47,1.92*0F
$PGRMZ,-115,f,3*33
$PFLAU,0,1,2,1,0,0,2,0,2147483647*68
$GPRMC,151925.00,A,4506.05415,N,07538.01672,W,0.189,,251020,,,A*64
$GPGGA,151925.00,4506.05415,N,07538.01672,W,1,08,1.47,96.4,M,-34.2,M,,*55
$GPGSA,A,3,30,18,29,05,20,23,13,15,,,,,2.42,1.47,1.92*0F
$PGRMZ,-115,f,3*33
$PFLAU,0,1,2,1,0,0,2,0,2147483647*68
$GPRMC,151926.00,A,4506.05402,N,07538.01668,W,0.112,,251020,,,A*68
$GPGGA,151926.00,4506.05402,N,07538.01668,W,1,08,1.47,96.3,M,-34.2,M,,*5C
$GPGSA,A,3,30,18,29,05,20,23,13,15,,,,,2.42,1.47,1.92*0F
$PGRMZ,-118,f,3*3E
$PFLAU,0,1,2,1,0,0,2,0,2147483647*68
$GPRMC,151927.00,A,4506.05394,N,07538.01659,W,0.121,,251020,,,A*63
$GPGGA,151927.00,4506.05394,N,07538.01659,W,1,08,1.47,96.2,M,-34.2,M,,*56
$GPGSA,A,3,30,18,29,05,20,23,13,15,,,,,2.42,1.47,1.92*0F
$PGRMZ,-115,f,3*33
$PFLAU,0,1,2,1,0,0,2,0,2147483647*68
$GPRMC,151928.00,A,4506.05390,N,07538.01648,W,0.168,,251020,,,A*65
$GPGGA,151928.00,4506.05390,N,07538.01648,W,1,08,1.47,96.2,M,-34.2,M,,*5D
$GPGSA,A,3,30,18,29,05,20,23,13,15,,,,,2.42,1.47,1.92*0F
$PGRMZ,-115,f,3*33
$PFLAU,0,1,2,1,0,0,2,0,2147483647*68
$GPRMC,151929.00,A,4506.05382,N,07538.01645,W,0.195,,251020,,,A*68
$GPGGA,151929.00,4506.05382,N,07538.01645,W,1,08,1.47,95.8,M,-34.2,M,,*5B
$GPGSA,A,3,30,18,29,05,20,23,13,15,,,,,2.42,1.47,1.92*0F
$PGRMZ,-115,f,3*33
$PFLAU,0,1,2,1,0,0,2,0,2147483647*68
$GPRMC,151930.00,A,4506.05374,N,07538.01638,W,0.168,,251020,,,A*61
$GPGGA,151930.00,4506.05374,N,07538.01638,W,1,08,1.47,95.6,M,-34.2,M,,*5E
$GPGSA,A,3,30,18,29,05,20,23,13,15,,,,,2.42,1.47,1.92*0F
$PGRMZ,-113,f,3*35
$PFLAU,0,1,2,1,0,0,2,0,2147483647*68
$GPRMC,151931.00,A,4506.05367,N,07538.01634,W,0.144,,251020,,,A*60
$GPGGA,151931.00,4506.05367,N,07538.01634,W,1,08,1.47,95.5,M,-34.2,M,,*52
$GPGSA,A,3,30,18,29,05,20,23,13,15,,,,,2.42,1.47,1.92*0F
$PGRMZ,-113,f,3*35
$PFLAU,0,1,2,1,0,0,2,0,2147483647*68
$GPRMC,151932.00,A,4506.05356,N,07538.01632,W,0.253,,251020,,,A*62
$GPGGA,151932.00,4506.05356,N,07538.01632,W,1,08,1.47,95.2,M,-34.2,M,,*52
$GPGSA,A,3,30,18,29,05,20,23,13,15,,,,,2.42,1.47,1.92*0F
$PGRMZ,-112,f,3*34
$PFLAU,0,1,2,1,0,0,2,0,2147483647*68
$GPRMC,151933.00,A,4506.05345,N,07538.01631,W,0.123,,251020,,,A*66
$GPGGA,151933.00,4506.05345,N,07538.01631,W,1,08,1.47,95.1,M,-34.2,M,,*51
$GPGSA,A,3,30,18,29,05,20,23,13,15,,,,,2.42,1.47,1.92*0F
$PGRMZ,-110,f,3*36
$PFLAU,0,1,2,1,0,0,2,0,2147483647*68
$GPRMC,151934.00,A,4506.05337,N,07538.01626,W,0.064,,251020,,,A*60
$GPGGA,151934.00,4506.05337,N,07538.01626,W,1,08,1.47,95.1,M,-34.2,M,,*55
$GPGSA,A,3,30,18,29,05,20,23,13,15,,,,,2.42,1.47,1.92*0F
$PGRMZ,-112,f,3*34
$PFLAU,0,1,2,1,0,0,2,0,2147483647*68
$GPRMC,151935.00,A,4506.05328,N,07538.01623,W,0.231,,251020,,,A*68
$GPGGA,151935.00,4506.05328,N,07538.01623,W,1,08,1.47,94.9,M,-34.2,M,,*56
$GPGSA,A,3,30,18,29,05,20,23,13,15,,,,,2.42,1.47,1.92*0F
$PGRMZ,-111,f,3*37
$PFLAU,0,1,2,1,0,0,2,0,2147483647*68
$GPRMC,151936.00,A,4506.05317,N,07538.01615,W,0.273,,251020,,,A*64
$GPGGA,151936.00,4506.05317,N,07538.01615,W,1,08,1.47,94.7,M,-34.2,M,,*52
$GPGSA,A,3,30,18,29,05,20,23,13,15,,,,,2.42,1.47,1.92*0F
$PGRMZ,-112,f,3*34
$PFLAU,0,1,2,1,0,0,2,0,2147483647*68
$GPRMC,151937.00,A,4506.05310,N,07538.01611,W,0.208,,251020,,,A*6A
$GPGGA,151937.00,4506.05310,N,07538.01611,W,1,08,1.47,94.6,M,-34.2,M,,*51
$GPGSA,A,3,30,18,29,05,20,23,13,15,,,,,2.42,1.47,1.92*0F
$PGRMZ,-112,f,3*34
$PFLAU,0,1,2,1,0,0,2,0,2147483647*68
$GPRMC,151938.00,A,4506.05307,N,07538.01612,W,0.210,,251020,,,A*69
$GPGGA,151938.00,4506.05307,N,07538.01612,W,1,08,1.47,94.6,M,-34.2,M,,*5B
$GPGSA,A,3,30,18,29,05,20,23,13,15,,,,,2.42,1.47,1.92*0F
$PGRMZ,-115,f,3*33
$PFLAU,0,1,2,1,0,0,2,0,2147483647*68
$GPRMC,151939.00,A,4506.05306,N,07538.01608,W,0.062,,251020,,,A*65
$GPGGA,151939.00,4506.05306,N,07538.01608,W,1,08,1.47,94.6,M,-34.2,M,,*50
$GPGSA,A,3,30,18,29,05,20,23,13,15,,,,,2.42,1.47,1.92*0F
$PGRMZ,-113,f,3*35
$PFLAU,0,1,2,1,0,0,2,0,2147483647*68
$GPRMC,151940.00,A,4506.05307,N,07538.01603,W,0.037,,251020,,,A*61
$GPGGA,151940.00,4506.05307,N,07538.01603,W,1,08,1.47,94.8,M,-34.2,M,,*5A
$GPGSA,A,3,30,18,29,05,20,23,13,15,,,,,2.42,1.47,1.92*0F
$PGRMZ,-112,f,3*34
$PFLAU,0,1,2,1,0,0,2,0,2147483647*68
$GPRMC,151941.00,A,4506.05304,N,07538.01597,W,0.084,,251020,,,A*65
$GPGGA,151941.00,4506.05304,N,07538.01597,W,1,08,1.47,94.7,M,-34.2,M,,*59
$GPGSA,A,3,30,18,29,05,20,23,13,15,,,,,2.42,1.47,1.92*0F
$PGRMZ,-113,f,3*35
$PFLAU,0,1,2,1,0,0,2,0,2147483647*68
$GPRMC,151942.00,A,4506.05298,N,07538.01592,W,0.064,,251020,,,A*69
$GPGGA,151942.00,4506.05298,N,07538.01592,W,1,08,1.47,94.7,M,-34.2,M,,*5B
$GPGSA,A,3,30,18,29,05,20,23,13,15,,,,,2.42,1.47,1.92*0F
$PGRMZ,-111,f,3*37
$PFLAU,0,1,2,1,0,0,2,0,2147483647*68
$GPRMC,151943.00,A,4506.05295,N,07538.01584,W,0.221,,251020,,,A*61
$GPGGA,151943.00,4506.05295,N,07538.01584,W,1,08,1.47,94.7,M,-34.2,M,,*50
$GPGSA,A,3,30,18,29,05,20,23,13,15,,,,,2.42,1.47,1.92*0F
$PGRMZ,-111,f,3*37
$PFLAU,0,1,2,1,0,0,2,0,2147483647*68
$GPRMC,151944.00,A,4506.05295,N,07538.01582,W,0.147,,251020,,,A*63
$GPGGA,151944.00,4506.05295,N,07538.01582,W,1,08,1.47,94.7,M,-34.2,M,,*51
$GPGSA,A,3,30,18,29,05,20,23,13,15,,,,,2.42,1.47,1.92*0F
$PGRMZ,-112,f,3*34
$PFLAU,0,1,2,1,0,0,2,0,2147483647*68
$GPRMC,151945.00,A,4506.05293,N,07538.01579,W,0.133,,251020,,,A*63
$GPGGA,151945.00,4506.05293,N,07538.01579,W,1,08,1.47,94.8,M,-34.2,M,,*5D
$GPGSA,A,3,30,18,29,05,20,23,13,15,,,,,2.42,1.47,1.92*0F
$PGRMZ,-113,f,3*35
$PFLAU,0,1,2,1,0,0,2,0,2147483647*68
$GPRMC,151946.00,A,4506.05294,N,07538.01575,W,0.302,,251020,,,A*6B
$GPGGA,151946.00,4506.05294,N,07538.01575,W,1,08,1.47,94.8,M,-34.2,M,,*55
$GPGSA,A,3,30,18,29,05,20,23,13,15,,,,,2.42,1.47,1.92*0F
$PGRMZ,-115,f,3*33
$PFLAU,0,1,2,1,0,0,2,0,2147483647*68
$GPRMC,151947.00,A,4506.05290,N,07538.01571,W,0.049,,251020,,,A*66
$GPGGA,151947.00,4506.05290,N,07538.01571,W,1,08,1.47,94.7,M,-34.2,M,,*5B
$GPGSA,A,3,30,18,29,05,20,23,13,15,,,,,2.42,1.47,1.92*0F
$PGRMZ,-111,f,3*37
$PFLAU,0,1,2,1,0,0,2,0,2147483647*68
$GPRMC,151948.00,A,4506.05279,N,07538.01569,W,0.237,,251020,,,A*6C
$GPGGA,151948.00,4506.05279,N,07538.01569,W,1,08,1.47,94.5,M,-34.2,M,,*58
$GPGSA,A,3,30,18,29,05,20,23,13,15,,,,,2.42,1.47,1.92*0F
$PGRMZ,-115,f,3*33
$PFLAU,0,1,2,1,0,0,2,0,2147483647*68
$GPRMC,151949.00,A,4506.05268,N,07538.01576,W,0.441,,251020,,,A*64
$GPGGA,151949.00,4506.05268,N,07538.01576,W,1,08,1.47,94.2,M,-34.2,M,,*50
$GPGSA,A,3,30,18,29,05,20,23,13,15,,,,,2.42,1.47,1.92*0F
$PGRMZ,-114,f,3*32
$PFLAU,0,1,2,1,0,0,2,0,2147483647*68
$GPRMC,151950.00,A,4506.05254,N,07538.01579,W,0.334,,251020,,,A*69
$GPGGA,151950.00,4506.05254,N,07538.01579,W,1,08,1.47,93.9,M,-34.2,M,,*54
$GPGSA,A,3,30,18,29,05,20,23,13,15,,,,,2.42,1.47,1.92*0F
$PGRMZ,-113,f,3*35
$PFLAU,0,1,2,1,0,0,2,0,2147483647*68
$GPRMC,151951.00,A,4506.05247,N,07538.01578,W,0.163,,251020,,,A*6B
$GPGGA,151951.00,4506.05247,N,07538.01578,W,1,08,1.47,93.6,M,-34.2,M,,*59
$GPGSA,A,3,30,18,29,05,20,23,13,15,,,,,2.42,1.47,1.92*0F
$PGRMZ,-113,f,3*35
$PFLAU,0,1,2,1,0,0,2,0,2147483647*68
$GPRMC,151952.00,A,4506.05241,N,07538.01577,W,0.350,,251020,,,A*63
$GPGGA,151952.00,4506.05241,N,07538.01577,W,1,08,1.47,93.3,M,-34.2,M,,*56
$GPGSA,A,3,30,18,29,05,20,23,13,15,,,,,2.42,1.47,1.92*0F
$PGRMZ,-108,f,3*3F
$PFLAU,0,1,2,1,0,0,2,0,2147483647*68
$GPRMC,151953.00,A,4506.05236,N,07538.01576,W,0.346,,251020,,,A*64
$GPGGA,151953.00,4506.05236,N,07538.01576,W,1,08,1.47,92.9,M,-34.2,M,,*5D
$GPGSA,A,3,30,18,29,05,20,23,13,15,,,,,2.42,1.47,1.92*0F
$PGRMZ,-112,f,3*34
$PFLAU,0,1,2,1,0,0,2,0,2147483647*68
$GPRMC,151954.00,A,4506.05235,N,07538.01573,W,0.348,,251020,,,A*6B
$GPGGA,151954.00,4506.05235,N,07538.01573,W,1,08,1.47,92.4,M,-34.2,M,,*51
$GPGSA,A,3,30,18,29,05,20,23,13,15,,,,,2.42,1.47,1.92*0F
$PGRMZ,-110,f,3*36
$PFLAU,0,1,2,1,0,0,2,0,2147483647*68
$GPRMC,151955.00,A,4506.05236,N,07538.01571,W,0.115,,251020,,,A*61
$GPGGA,151955.00,4506.05236,N,07538.01571,W,1,08,1.47,91.9,M,-34.2,M,,*5F
$GPGSA,A,3,30,18,29,05,20,23,13,15,,,,,2.42,1.47,1.92*0F
$PGRMZ,-112,f,3*34
$PFLAU,0,1,2,1,0,0,2,0,2147483647*68
$GPRMC,151956.00,A,4506.05244,N,07538.01574,W,0.290,,251020,,,A*6C
$GPGGA,151956.00,4506.05244,N,07538.01574,W,1,08,1.47,91.8,M,-34.2,M,,*5D
$GPGSA,A,3,30,18,29,05,20,23,13,15,,,,,2.42,1.47,1.92*0F
$PGRMZ,-113,f,3*35
$PFLAU,0,1,2,1,0,0,2,0,2147483647*68
$GPRMC,151957.00,A,4506.05244,N,07538.01576,W,0.311,,251020,,,A*67
$GPGGA,151957.00,4506.05244,N,07538.01576,W,1,08,1.47,91.4,M,-34.2,M,,*52
$GPGSA,A,3,30,18,29,05,20,23,13,15,,,,,2.42,1.47,1.92*0F
$PGRMZ,-112,f,3*34
$PFLAU,0,1,2,1,0,0,2,0,2147483647*68
$GPRMC,151958.00,A,4506.05246,N,07538.01580,W,0.297,,251020,,,A*6C
$GPGGA,151958.00,4506.05246,N,07538.01580,W,1,08,1.47,91.3,M,-34.2,M,,*51
$GPGSA,A,3,30,18,29,05,20,23,13,15,,,,,2.42,1.47,1.92*0F
$PGRMZ,-112,f,3*34
$PFLAU,0,1,2,1,0,0,2,0,2147483647*68
$GPRMC,151959.00,A,4506.05250,N,07538.01576,W,0.225,,251020,,,A*6A
$GPGGA,151959.00,4506.05250,N,07538.01576,W,1,08,1.47,91.0,M,-34.2,M,,*5D
$GPGSA,A,3,30,18,29,05,20,23,13,15,,,,,2.42,1.47,1.92*0F
$PGRMZ,-111,f,3*37
$PFLAU,0,1,2,1,0,0,2,0,2147483647*68
$GPRMC,152000.00,A,4506.05246,N,07538.01574,W,0.452,,251020,,,A*6F
$GPGGA,152000.00,4506.05246,N,07538.01574,W,1,08,1.47,90.7,M,-34.2,M,,*58
$GPGSA,A,3,30,18,29,05,20,23,13,15,,,,,2.42,1.47,1.92*0F
$PGRMZ,-110,f,3*36
$PFLAU,0,1,2,1,0,0,2,0,2147483647*68
$GPRMC,152001.00,A,4506.05247,N,07538.01574,W,0.118,,251020,,,A*64
$GPGGA,152001.00,4506.05247,N,07538.01574,W,1,08,1.47,90.3,M,-34.2,M,,*5C
$GPGSA,A,3,30,18,29,05,20,23,13,15,,,,,2.42,1.47,1.92*0F
$PGRMZ,-110,f,3*36
$PFLAU,0,1,2,1,0,0,2,0,2147483647*68
$GPRMC,152002.00,A,4506.05249,N,07538.01577,W,0.245,,251020,,,A*61
$GPGGA,152002.00,4506.05249,N,07538.01577,W,1,08,1.47,90.0,M,-34.2,M,,*51
$GPGSA,A,3,30,18,29,05,20,23,13,15,,,,,2.42,1.47,1.92*0F
$PGRMZ,-113,f,3*35
$PFLAU,0,1,2,1,0,0,2,0,2147483647*68
$GPRMC,152003.00,A,4506.05248,N,07538.01582,W,0.229,,251020,,,A*61
$GPGGA,152003.00,4506.05248,N,07538.01582,W,1,08,1.47,89.8,M,-34.2,M,,*5B
$GPGSA,A,3,30,18,29,05,20,23,13,15,,,,,2.42,1.47,1.92*0F
$PGRMZ,-110,f,3*36
$PFLAU,0,1,2,1,0,0,2,0,2147483647*68
$GPRMC,152004.00,A,4506.05252,N,07538.01584,W,0.133,,251020,,,A*63
$GPGGA,152004.00,4506.05252,N,07538.01584,W,1,08,1.47,89.6,M,-34.2,M,,*5F
$GPGSA,A,3,30,18,29,05,20,23,13,15,,,,,2.42,1.47,1.92*0F
$PGRMZ,-107,f,3*30
$PFLAU,0,1,2,1,0,0,2,0,2147483647*68
$GPRMC,152005.00,A,4506.05256,N,07538.01586,W,0.048,,251020,,,A*69
$GPGGA,152005.00,4506.05256,N,07538.01586,W,1,08,1.47,89.5,M,-34.2,M,,*5B
$GPGSA,A,3,30,18,29,05,20,23,13,15,,,,,2.42,1.47,1.92*0F
$PGRMZ,-109,f,3*3E
$PFLAU,0,1,2,1,0,0,2,0,2147483647*68
$GPRMC,152006.00,A,4506.05261,N,07538.01584,W,0.291,,251020,,,A*6A
$GPGGA,152006.00,4506.05261,N,07538.01584,W,1,08,1.47,89.3,M,-34.2,M,,*58
$GPGSA,A,3,30,18,29,05,20,23,13,15,,,,,2.42,1.47,1.92*0F
$PGRMZ,-107,f,3*30
$PFLAU,0,1,2,1,0,0,2,0,2147483647*68
$GPRMC,152007.00,A,4506.05266,N,07538.01586,W,0.159,,251020,,,A*69
$GPGGA,152007.00,4506.05266,N,07538.01586,W,1,08,1.47,89.1,M,-34.2,M,,*5E
$GPGSA,A,3,30,18,29,05,20,23,13,15,,,,,2.42,1.47,1.92*0F
$PGRMZ,-106,f,3*31
$PFLAU,0,1,2,1,0,0,2,0,2147483647*68
$GPRMC,152008.00,A,4506.05262,N,07538.01591,W,0.277,,251020,,,A*6B
$GPGGA,152008.00,4506.05262,N,07538.01591,W,1,08,1.47,88.9,M,-34.2,M,,*5A
$GPGSA,A,3,30,18,29,05,20,23,13,15,,,,,2.42,1.47,1.92*0F
$PGRMZ,-107,f,3*30
$PFLAU,0,1,2,1,0,0,2,0,2147483647*68
$GPRMC,152009.00,A,4506.05253,N,07538.01594,W,0.392,,251020,,,A*67
